#BESTPOSA,FILE,0,41.5,FINESTEERING,2315,478865.600,02001000,cdba,17139;SOL_COMPUTED,PSRDIFF,17.60147097577,78.12658506981,526.7063,-76.2000,WGS84,0.5860,0.6579,1.8739,"0",4.600,0.000,47,6,6,0,00,08,00,01*c0f71f25
#BESTPOSA,FILE,0,41.5,FINESTEERING,2315,478865.700,02001000,cdba,17139;SOL_COMPUTED,PSRDIFF,17.60147096434,78.12658508591,526.7100,-76.2000,WGS84,0.5863,0.6585,1.8746,"0",4.700,0.000,47,6,6,0,00,08,00,01*2bebf709
#BESTPOSA,FILE,0,41.5,FINESTEERING,2315,478865.800,02001000,cdba,17139;SOL_COMPUTED,PSRDIFF,17.60147095894,78.12658504676,526.7052,-76.2000,WGS84,0.5869,0.6584,1.8754,"0",4.800,0.000,47,6,6,0,00,08,00,01*2c6e55ec
#BESTPOSA,FILE,0,41.5,FINESTEERING,2315,478865.900,02001000,cdba,17139;SOL_COMPUTED,PSRDIFF,17.60147095391,78.12658504321,526.7059,-76.2000,WGS84,0.5870,0.6583,1.8753,"0",4.900,0.000,47,6,6,0,00,08,00,01*cc1bd676
#BESTPOSA,FILE,0,41.5,FINESTEERING,2315,478866.000,02001000,cdba,17139;SOL_COMPUTED,PSRDIFF,17.60147096763,78.12658503374,526.7022,-76.2000,WGS84,0.5870,0.6583,1.8754,"0",5.000,0.000,47,6,6,0,00,08,00,01*73f803a3
#BESTPOSA,FILE,0,39.0,FINESTEERING,2315,478866.100,02001000,cdba,17139;SOL_COMPUTED,NARROW_INT,17.60147298314,78.12658458785,526.1576,-76.2000,WGS84,0.0089,0.0096,0.0265,"0",3.100,0.000,47,47,47,45,00,21,3f,37*a0104313
#BESTPOSA,FILE,0,39.0,FINESTEERING,2315,478866.200,02001000,cdba,17139;SOL_COMPUTED,NARROW_INT,17.60147298774,78.12658458663,526.1581,-76.2000,WGS84,0.0089,0.0097,0.0266,"0",3.200,0.000,47,47,47,45,00,21,3f,37*521b6036
#BESTPOSA,FILE,0,39.0,FINESTEERING,2315,478866.300,02001000,cdba,17139;SOL_COMPUTED,NARROW_INT,17.60147293381,78.12658453765,526.1554,-76.2000,WGS84,0.0082,0.0089,0.0255,"0",1.300,0.000,47,47,47,45,00,21,3f,37*cff5bd3d
#BESTPOSA,FILE,0,39.0,FINESTEERING,2315,478866.400,02001000,cdba,17139;SOL_COMPUTED,NARROW_INT,17.60147293410,78.12658453068,526.1551,-76.2000,WGS84,0.0082,0.0089,0.0255,"0",1.400,0.000,47,47,47,45,00,21,3f,37*84299176
#BESTPOSA,FILE,0,39.0,FINESTEERING,2315,478866.500,02001000,cdba,17139;SOL_COMPUTED,NARROW_INT,17.60147293474,78.12658453307,526.1556,-76.2000,WGS84,0.0082,0.0090,0.0256,"0",1.500,0.000,47,47,47,45,00,21,3f,37*9b0ba090
#BESTPOSA,FILE,0,39.0,FINESTEERING,2315,478866.600,02001000,cdba,17139;SOL_COMPUTED,NARROW_INT,17.60147294757,78.12658452896,526.1527,-76.2000,WGS84,0.0083,0.0090,0.0256,"0",1.600,0.000,47,47,47,45,00,21,3f,37*8300f886
#BESTPOSA,FILE,0,39.0,FINESTEERING,2315,478866.700,02001000,cdba,17139;SOL_COMPUTED,NARROW_INT,17.60147297895,78.12658453087,526.1535,-76.2000,WGS84,0.0083,0.0090,0.0257,"0",1.700,0.000,47,47,47,45,00,21,3f,37*398914fc
#BESTPOSA,FILE,0,39.0,FINESTEERING,2315,478866.800,02001000,cdba,17139;SOL_COMPUTED,NARROW_INT,17.60147304182,78.12658453210,526.1536,-76.2000,WGS84,0.0083,0.0091,0.0257,"0",1.800,0.000,46,46,46,44,00,21,3f,37*3551c094
#BESTPOSA,FILE,0,39.0,FINESTEERING,2315,478866.900,02001000,cdba,17139;SOL_COMPUTED,NARROW_INT,17.60147314304,78.12658452779,526.1499,-76.2000,WGS84,0.0084,0.0091,0.0258,"0",1.900,0.000,46,46,46,44,00,21,3f,37*3198e4cb
#BESTPOSA,FILE,0,39.0,FINESTEERING,2315,478867.000,02001000,cdba,17139;SOL_COMPUTED,NARROW_INT,17.60147330753,78.12658451401,526.1504,-76.2000,WGS84,0.0084,0.0091,0.0259,"0",2.000,0.000,46,46,46,44,00,21,3f,37*d3657c3a
#BESTPOSA,FILE,0,38.5,FINESTEERING,2315,478867.100,02001000,cdba,17139;SOL_COMPUTED,NARROW_INT,17.60147352389,78.12658449555,526.1515,-76.2000,WGS84,0.0085,0.0092,0.0260,"0",2.100,0.000,46,46,46,44,00,21,3f,37*10ecde1a
#BESTPOSA,FILE,0,38.5,FINESTEERING,2315,478867.200,02001000,cdba,17139;SOL_COMPUTED,NARROW_INT,17.60147378656,78.12658448414,526.1520,-76.2000,WGS84,0.0085,0.0093,0.0261,"0",2.200,0.000,46,46,46,44,00,21,3f,37*9fbb3eeb
#BESTPOSA,FILE,0,38.5,FINESTEERING,2315,478867.300,02001000,cdba,17139;SOL_COMPUTED,NARROW_INT,17.60147412276,78.12658450039,526.1567,-76.2000,WGS84,0.0081,0.0088,0.0247,"0",1.300,0.000,46,46,46,44,00,21,3f,37*7e841f72
#BESTPOSA,FILE,0,38.5,FINESTEERING,2315,478867.400,02001000,cdba,17139;SOL_COMPUTED,NARROW_INT,17.60147449425,78.12658446911,526.1584,-76.2000,WGS84,0.0082,0.0089,0.0248,"0",1.400,0.000,46,46,46,44,00,21,3f,37*97613509
#BESTPOSA,FILE,0,38.5,FINESTEERING,2315,478867.500,02001000,cdba,17139;SOL_COMPUTED,NARROW_INT,17.60147492174,78.12658443943,526.1565,-76.2000,WGS84,0.0082,0.0089,0.0248,"0",1.500,0.000,46,46,46,44,00,21,3f,37*5da4df95
#BESTPOSA,FILE,0,38.5,FINESTEERING,2315,478867.600,02001000,cdba,17139;SOL_COMPUTED,NARROW_INT,17.60147540709,78.12658440711,526.1573,-76.2000,WGS84,0.0082,0.0090,0.0249,"0",1.600,0.000,46,46,46,44,00,21,3f,37*907b7c48
#BESTPOSA,FILE,0,38.5,FINESTEERING,2315,478867.700,02001000,cdba,17139;SOL_COMPUTED,NARROW_INT,17.60147598446,78.12658440300,526.1600,-76.2000,WGS84,0.0083,0.0090,0.0249,"0",1.700,0.000,46,46,46,44,00,21,3f,37*28a309d5
#BESTPOSA,FILE,0,38.5,FINESTEERING,2315,478867.800,02001000,cdba,17139;SOL_COMPUTED,NARROW_INT,17.60147661680,78.12658438039,526.1621,-76.2000,WGS84,0.0083,0.0090,0.0250,"0",1.800,0.000,46,46,46,44,00,21,3f,37*ebe9b74d
#BESTPOSA,FILE,0,38.5,FINESTEERING,2315,478867.900,02001000,cdba,17139;SOL_COMPUTED,NARROW_INT,17.60147731252,78.12658432941,526.1572,-76.2000,WGS84,0.0084,0.0091,0.0251,"0",1.900,0.000,46,46,46,44,00,21,3f,37*e3aa0b62
#BESTPOSA,FILE,0,38.5,FINESTEERING,2315,478868.000,02001000,cdba,17139;SOL_COMPUTED,NARROW_INT,17.60147812063,78.12658430191,526.1609,-76.2000,WGS84,0.0084,0.0091,0.0251,"0",2.000,0.000,46,46,46,44,00,21,3f,37*7e7e566f
#BESTPOSA,FILE,0,38.5,FINESTEERING,2315,478868.100,02001000,cdba,17139;SOL_COMPUTED,NARROW_INT,17.60147899168,78.12658426239,526.1612,-76.2000,WGS84,0.0085,0.0092,0.0253,"0",2.100,0.000,46,46,46,44,00,21,3f,37*b2eb8a12
#BESTPOSA,FILE,0,38.5,FINESTEERING,2315,478868.200,02001000,cdba,17139;SOL_COMPUTED,NARROW_INT,17.60147995483,78.12658421031,526.1639,-76.2000,WGS84,0.0085,0.0093,0.0253,"0",2.200,0.000,46,46,46,44,00,21,3f,37*260f5ebb
#BESTPOSA,FILE,0,38.5,FINESTEERING,2315,478868.300,02001000,cdba,17139;SOL_COMPUTED,NARROW_INT,17.60148099380,78.12658415403,526.1640,-76.2000,WGS84,0.0081,0.0088,0.0242,"0",1.300,0.000,46,46,46,44,00,21,3f,37*6f951063
#BESTPOSA,FILE,0,38.5,FINESTEERING,2315,478868.400,02001000,cdba,17139;SOL_COMPUTED,NARROW_INT,17.60148216969,78.12658407864,526.1623,-76.2000,WGS84,0.0082,0.0089,0.0242,"0",1.400,0.000,46,46,46,44,00,21,3f,37*da6b7688
#BESTPOSA,FILE,0,38.5,FINESTEERING,2315,478868.500,02001000,cdba,17139;SOL_COMPUTED,NARROW_INT,17.60148353842,78.12658400319,526.1626,-76.2000,WGS84,0.0082,0.0089,0.0243,"0",1.500,0.000,46,46,46,44,00,21,3f,37*eafdeb78
#BESTPOSA,FILE,0,38.5,FINESTEERING,2315,478868.600,02001000,cdba,17139;SOL_COMPUTED,NARROW_INT,17.60148505844,78.12658393818,526.1646,-76.2000,WGS84,0.0082,0.0089,0.0244,"0",1.600,0.000,46,46,46,44,00,21,3f,37*38d6c73b
#BESTPOSA,FILE,0,38.5,FINESTEERING,2315,478868.700,02001000,cdba,17139;SOL_COMPUTED,NARROW_INT,17.60148662781,78.12658383819,526.1727,-76.2000,WGS84,0.0083,0.0090,0.0244,"0",1.700,0.000,46,46,46,44,00,21,3f,37*6df42eb7
#BESTPOSA,FILE,0,38.5,FINESTEERING,2315,478868.800,02001000,cdba,17139;SOL_COMPUTED,NARROW_INT,17.60148821088,78.12658374482,526.1789,-76.2000,WGS84,0.0083,0.0090,0.0245,"0",1.800,0.000,46,46,46,44,00,21,3f,37*dc7591af
#BESTPOSA,FILE,0,38.5,FINESTEERING,2315,478868.900,02001000,cdba,17139;SOL_COMPUTED,NARROW_INT,17.60148981858,78.12658367411,526.1785,-76.2000,WGS84,0.0084,0.0091,0.0246,"0",1.900,0.000,46,46,46,44,00,21,3f,37*608cd07e
#BESTPOSA,FILE,0,38.5,FINESTEERING,2315,478869.000,02001000,cdba,17139;SOL_COMPUTED,NARROW_INT,17.60149151845,78.12658360584,526.1751,-76.2000,WGS84,0.0084,0.0091,0.0246,"0",2.000,0.000,46,46,46,44,00,21,3f,37*d5043ae4
#BESTPOSA,FILE,0,37.5,FINESTEERING,2315,478869.100,02001000,cdba,17139;SOL_COMPUTED,NARROW_INT,17.60149325547,78.12658353554,526.1769,-76.2000,WGS84,0.0085,0.0092,0.0248,"0",2.100,0.000,46,46,46,44,00,21,3f,37*42b2c4b5
#BESTPOSA,FILE,0,37.5,FINESTEERING,2315,478869.200,02001000,cdba,17139;SOL_COMPUTED,NARROW_INT,17.60149503574,78.12658346235,526.1786,-76.2000,WGS84,0.0085,0.0092,0.0249,"0",2.200,0.000,46,46,46,44,00,21,3f,37*e7f51d9d
#BESTPOSA,FILE,0,37.5,FINESTEERING,2315,478869.300,02001000,cdba,17139;SOL_COMPUTED,NARROW_INT,17.60149680233,78.12658334511,526.1932,-76.2000,WGS84,0.0082,0.0088,0.0248,"0",1.300,0.000,46,46,46,44,00,21,3f,37*6eff5e44
#BESTPOSA,FILE,0,37.5,FINESTEERING,2315,478869.400,02001000,cdba,17139;SOL_COMPUTED,NARROW_INT,17.60149863648,78.12658326466,526.1918,-76.2000,WGS84,0.0083,0.0089,0.0248,"0",1.400,0.000,46,46,46,44,00,21,3f,37*6e780e6c
#BESTPOSA,FILE,0,37.5,FINESTEERING,2315,478869.500,02001000,cdba,17139;SOL_COMPUTED,NARROW_INT,17.60150051337,78.12658317477,526.1918,-76.2000,WGS84,0.0083,0.0089,0.0249,"0",1.500,0.000,46,46,46,44,00,21,3f,37*935b59cc
#BESTPOSA,FILE,0,37.5,FINESTEERING,2315,478869.600,02001000,cdba,17139;SOL_COMPUTED,NARROW_INT,17.60150242158,78.12658308803,526.1928,-76.2000,WGS84,0.0083,0.0090,0.0250,"0",1.600,0.000,46,46,46,44,00,21,3f,37*a3ef6867
#BESTPOSA,FILE,0,37.5,FINESTEERING,2315,478869.700,02001000,cdba,17139;SOL_COMPUTED,NARROW_INT,17.60150435379,78.12658299111,526.1938,-76.2000,WGS84,0.0084,0.0090,0.0251,"0",1.700,0.000,46,46,46,44,00,21,3f,37*f66b6714
#BESTPOSA,FILE,0,37.5,FINESTEERING,2315,478869.800,02001000,cdba,17139;SOL_COMPUTED,NARROW_INT,17.60150629702,78.12658288094,526.1966,-76.2000,WGS84,0.0084,0.0091,0.0251,"0",1.800,0.000,46,45,45,43,00,21,3f,37*f06fc83d
#BESTPOSA,FILE,0,37.5,FINESTEERING,2315,478869.900,02001000,cdba,17139;SOL_COMPUTED,NARROW_INT,17.60150827813,78.12658279713,526.1915,-76.2000,WGS84,0.0084,0.0091,0.0252,"0",1.900,0.000,46,45,45,43,00,21,3f,37*ba214f94
#BESTPOSA,FILE,0,37.5,FINESTEERING,2315,478870.000,02001000,cdba,17139;SOL_COMPUTED,NARROW_INT,17.60151028866,78.12658268684,526.1979,-76.2000,WGS84,0.0085,0.0091,0.0253,"0",2.000,0.000,45,45,45,43,00,21,3f,37*f5b1c550
#BESTPOSA,FILE,0,37.5,FINESTEERING,2315,478870.100,02001000,cdba,17139;SOL_COMPUTED,NARROW_INT,17.60151231058,78.12658260222,526.1976,-76.2000,WGS84,0.0086,0.0093,0.0255,"0",2.100,0.000,46,45,45,43,00,21,3f,37*bc34275b
#BESTPOSA,FILE,0,38.0,FINESTEERING,2315,478870.200,02001000,cdba,17139;SOL_COMPUTED,NARROW_INT,17.60151432666,78.12658252631,526.2001,-76.2000,WGS84,0.0086,0.0093,0.0255,"0",2.200,0.000,46,45,45,43,00,21,3f,37*2bd613e8
#BESTPOSA,FILE,0,38.0,FINESTEERING,2315,478870.300,02001000,cdba,17139;SOL_COMPUTED,NARROW_INT,17.60151635137,78.12658242841,526.2005,-76.2000,WGS84,0.0087,0.0093,0.0256,"0",2.300,0.000,45,45,45,43,00,21,3f,37*253d381b
#BESTPOSA,FILE,0,38.0,FINESTEERING,2315,478870.400,02001000,cdba,17139;SOL_COMPUTED,NARROW_INT,17.60151840253,78.12658233136,526.2030,-76.2000,WGS84,0.0087,0.0094,0.0257,"0",2.400,0.000,45,45,45,43,00,21,3f,37*df3cb856
#BESTPOSA,FILE,0,38.0,FINESTEERING,2315,478870.500,02001000,cdba,17139;SOL_COMPUTED,NARROW_INT,17.60152046114,78.12658224783,526.2079,-76.2000,WGS84,0.0087,0.0094,0.0258,"0",2.500,0.000,45,45,45,43,00,21,3f,37*7549a06d
#BESTPOSA,FILE,0,38.0,FINESTEERING,2315,478870.600,02001000,cdba,17139;SOL_COMPUTED,NARROW_INT,17.60152254061,78.12658213193,526.2128,-76.2000,WGS84,0.0088,0.0095,0.0258,"0",2.600,0.000,45,45,45,43,00,21,3f,37*346639f9
#BESTPOSA,FILE,0,38.0,FINESTEERING,2315,478870.700,02001000,cdba,17139;SOL_COMPUTED,NARROW_INT,17.60152464975,78.12658207040,526.2074,-76.2000,WGS84,0.0088,0.0095,0.0259,"0",2.700,0.000,45,44,44,42,00,21,3f,37*22b6bc92
#BESTPOSA,FILE,0,38.0,FINESTEERING,2315,478870.800,02001000,cdba,17139;SOL_COMPUTED,NARROW_INT,17.60152674698,78.12658198784,526.2078,-76.2000,WGS84,0.0088,0.0096,0.0260,"0",2.800,0.000,46,44,44,42,00,21,3f,37*81cf7d2d
#BESTPOSA,FILE,0,38.0,FINESTEERING,2315,478870.900,02001000,cdba,17139;SOL_COMPUTED,NARROW_INT,17.60152885993,78.12658189279,526.2074,-76.2000,WGS84,0.0089,0.0096,0.0260,"0",2.900,0.000,45,43,43,41,00,21,3f,37*77cba67e
#BESTPOSA,FILE,0,38.0,FINESTEERING,2315,478871.000,02001000,cdba,17139;SOL_COMPUTED,NARROW_INT,17.60153097824,78.12658180181,526.2093,-76.2000,WGS84,0.0089,0.0096,0.0261,"0",3.000,0.000,46,43,43,41,00,21,3f,37*95e4b4a6
#BESTPOSA,FILE,0,38.0,FINESTEERING,2315,478871.100,02001000,cdba,17139;SOL_COMPUTED,NARROW_INT,17.60153310278,78.12658167719,526.2117,-76.2000,WGS84,0.0090,0.0097,0.0263,"0",3.100,0.000,46,45,45,42,00,21,3f,37*8c83df82
#BESTPOSA,FILE,0,40.0,FINESTEERING,2315,478871.200,02001000,cdba,17139;SOL_COMPUTED,NARROW_INT,17.60153523382,78.12658158037,526.2104,-76.2000,WGS84,0.0090,0.0098,0.0264,"0",3.200,0.000,45,45,45,43,00,21,3f,37*7265fd65
#BESTPOSA,FILE,0,40.0,FINESTEERING,2315,478871.300,02001000,cdba,17139;SOL_COMPUTED,NARROW_INT,17.60153738750,78.12658149887,526.2155,-76.2000,WGS84,0.0086,0.0095,0.0262,"0",2.300,0.000,45,45,45,43,00,21,3f,37*2248d710
#BESTPOSA,FILE,0,40.0,FINESTEERING,2315,478871.400,02001000,cdba,17139;SOL_COMPUTED,NARROW_INT,17.60153954067,78.12658138978,526.2204,-76.2000,WGS84,0.0087,0.0095,0.0263,"0",2.400,0.000,45,45,45,43,00,21,3f,37*29b69af1
#BESTPOSA,FILE,0,40.0,FINESTEERING,2315,478871.500,02001000,cdba,17139;SOL_COMPUTED,NARROW_INT,17.60154168283,78.12658131305,526.2205,-76.2000,WGS84,0.0087,0.0095,0.0264,"0",2.500,0.000,45,45,45,43,00,21,3f,37*0a1616ef
#BESTPOSA,FILE,0,40.0,FINESTEERING,2315,478871.600,02001000,cdba,17139;SOL_COMPUTED,NARROW_INT,17.60154383723,78.12658122290,526.2266,-76.2000,WGS84,0.0088,0.0096,0.0264,"0",2.600,0.000,45,45,45,43,00,21,3f,37*34050976
#BESTPOSA,FILE,0,40.0,FINESTEERING,2315,478871.700,02001000,cdba,17139;SOL_COMPUTED,NARROW_INT,17.60154599051,78.12658114373,526.2282,-76.2000,WGS84,0.0088,0.0096,0.0265,"0",2.700,0.000,44,44,44,42,00,21,3f,37*9ca9fa5e
#BESTPOSA,FILE,0,40.0,FINESTEERING,2315,478871.800,02001000,cdba,17139;SOL_COMPUTED,NARROW_INT,17.60154815604,78.12658104396,526.2320,-76.2000,WGS84,0.0088,0.0097,0.0265,"0",2.800,0.000,44,44,44,42,00,21,3f,37*e6aedac8
#BESTPOSA,FILE,0,40.0,FINESTEERING,2315,478871.900,02001000,cdba,17139;SOL_COMPUTED,NARROW_INT,17.60155032558,78.12658094974,526.2382,-76.2000,WGS84,0.0089,0.0097,0.0266,"0",2.900,0.000,44,44,44,42,00,21,3f,37*21f5f481
#BESTPOSA,FILE,0,40.0,FINESTEERING,2315,478872.000,02001000,cdba,17139;SOL_COMPUTED,NARROW_INT,17.60155249833,78.12658086213,526.2370,-76.2000,WGS84,0.0089,0.0098,0.0267,"0",3.000,0.000,44,44,44,42,00,21,3f,37*08434556
#BESTPOSA,FILE,0,38.0,FINESTEERING,2315,478872.100,02001000,cdba,17139;SOL_COMPUTED,NARROW_INT,17.60155469875,78.12658079035,526.2381,-76.2000,WGS84,0.0090,0.0099,0.0269,"0",3.100,0.000,44,44,44,42,00,21,3f,37*55c0ed84
#BESTPOSA,FILE,0,38.0,FINESTEERING,2315,478872.200,02001000,cdba,17139;SOL_COMPUTED,NARROW_INT,17.60155693978,78.12658070459,526.2421,-76.2000,WGS84,0.0090,0.0099,0.0270,"0",3.200,0.000,44,44,44,42,00,21,3f,37*fbc1fc62
#BESTPOSA,FILE,0,38.0,FINESTEERING,2315,478872.300,02001000,cdba,17139;SOL_COMPUTED,NARROW_INT,17.60155927833,78.12658060874,526.2437,-76.2000,WGS84,0.0091,0.0100,0.0270,"0",3.300,0.000,44,43,43,41,00,21,3f,37*312281da
#BESTPOSA,FILE,0,38.0,FINESTEERING,2315,478872.400,02001000,cdba,17139;SOL_COMPUTED,NARROW_INT,17.60156170950,78.12658051691,526.2416,-76.2000,WGS84,0.0091,0.0100,0.0271,"0",3.400,0.000,44,43,43,41,00,21,3f,37*1fe1c16f
#BESTPOSA,FILE,0,38.0,FINESTEERING,2315,478872.500,02001000,cdba,17139;SOL_COMPUTED,NARROW_INT,17.60156423617,78.12658041668,526.2464,-76.2000,WGS84,0.0091,0.0101,0.0272,"0",3.500,0.000,44,43,43,41,00,21,3f,37*8871074e
#BESTPOSA,FILE,0,38.0,FINESTEERING,2315,478872.600,02001000,cdba,17139;SOL_COMPUTED,NARROW_INT,17.60156680635,78.12658032457,526.2537,-76.2000,WGS84,0.0092,0.0101,0.0272,"0",3.600,0.000,44,43,43,41,00,21,3f,37*0651f1a3
#BESTPOSA,FILE,0,38.0,FINESTEERING,2315,478872.700,02001000,cdba,17139;SOL_COMPUTED,NARROW_INT,17.60156943250,78.12658023158,526.2571,-76.2000,WGS84,0.0092,0.0101,0.0273,"0",3.700,0.000,44,43,43,41,00,21,3f,37*6deb0e57
#BESTPOSA,FILE,0,38.0,FINESTEERING,2315,478872.800,02001000,cdba,17139;SOL_COMPUTED,NARROW_INT,17.60157212467,78.12658014793,526.2592,-76.2000,WGS84,0.0092,0.0102,0.0273,"0",3.800,0.000,44,43,43,41,00,21,3f,37*626447b1
#BESTPOSA,FILE,0,38.0,FINESTEERING,2315,478872.900,02001000,cdba,17139;SOL_COMPUTED,NARROW_INT,17.60157488456,78.12658003698,526.2629,-76.2000,WGS84,0.0093,0.0102,0.0274,"0",3.900,0.000,43,43,43,41,00,21,3f,37*16579247
#BESTPOSA,FILE,0,38.0,FINESTEERING,2315,478873.000,02001000,cdba,17139;SOL_COMPUTED,NARROW_INT,17.60157771437,78.12657994899,526.2625,-76.2000,WGS84,0.0093,0.0103,0.0275,"0",4.000,0.000,43,43,43,41,00,21,3f,37*a48c13b9
#BESTPOSA,FILE,0,38.0,FINESTEERING,2315,478873.100,02001000,cdba,17139;SOL_COMPUTED,NARROW_INT,17.60158057289,78.12657986666,526.2691,-76.2000,WGS84,0.0094,0.0104,0.0277,"0",4.100,0.000,43,43,43,41,00,21,3f,37*db9740e1
#BESTPOSA,FILE,0,40.5,FINESTEERING,2315,478873.200,02001000,cdba,17139;SOL_COMPUTED,PSRDIFF,17.60158160689,78.12658004946,526.6762,-76.2000,WGS84,0.5848,0.6497,1.8636,"0",4.200,0.000,44,6,6,0,00,08,00,01*ea6b946d
#BESTPOSA,FILE,0,40.5,FINESTEERING,2315,478873.300,02001000,cdba,17139;SOL_COMPUTED,PSRDIFF,17.60158455079,78.12657996971,526.6885,-76.2000,WGS84,0.5845,0.6498,1.8639,"0",4.300,0.000,44,6,6,0,00,08,00,01*90e1d146
#BESTPOSA,FILE,0,40.5,FINESTEERING,2315,478873.400,02001000,cdba,17139;SOL_COMPUTED,PSRDIFF,17.60158755672,78.12657989516,526.6808,-76.2000,WGS84,0.5843,0.6494,1.8638,"0",4.400,0.000,44,6,6,0,00,08,00,01*a870e74c
#BESTPOSA,FILE,0,40.5,FINESTEERING,2315,478873.500,02001000,cdba,17139;SOL_COMPUTED,PSRDIFF,17.60159059376,78.12657971584,526.6713,-76.2000,WGS84,0.5839,0.6489,1.8638,"0",4.500,0.000,44,6,6,0,00,08,00,01*77d302c1
#BESTPOSA,FILE,0,40.5,FINESTEERING,2315,478873.600,02001000,cdba,17139;SOL_COMPUTED,PSRDIFF,17.60159363426,78.12657965078,526.6755,-76.2000,WGS84,0.5843,0.6497,1.8663,"0",4.600,0.000,43,6,6,0,00,08,00,01*d445fc31
#BESTPOSA,FILE,0,40.5,FINESTEERING,2315,478873.700,02001000,cdba,17139;SOL_COMPUTED,PSRDIFF,17.60159668814,78.12657955568,526.6726,-76.2000,WGS84,0.5847,0.6504,1.8687,"0",4.700,0.000,44,6,6,0,00,08,00,01*6c06b809
#BESTPOSA,FILE,0,40.5,FINESTEERING,2315,478873.800,02001000,cdba,17139;SOL_COMPUTED,PSRDIFF,17.60159976026,78.12657944774,526.6883,-76.2000,WGS84,0.5845,0.6521,1.8698,"0",4.800,0.000,45,6,6,0,00,08,00,01*7548b96a
#BESTPOSA,FILE,0,40.5,FINESTEERING,2315,478873.900,02001000,cdba,17139;SOL_COMPUTED,PSRDIFF,17.60160284492,78.12657929795,526.6805,-76.2000,WGS84,0.5840,0.6531,1.8711,"0",4.900,0.000,45,6,6,0,00,08,00,01*40d6144f
#BESTPOSA,FILE,0,40.5,FINESTEERING,2315,478874.000,02001000,cdba,17139;SOL_COMPUTED,PSRDIFF,17.60160594923,78.12657922120,526.6800,-76.2000,WGS84,0.5843,0.6524,1.8706,"0",5.000,0.000,45,6,6,0,00,08,00,01*2d736ea8
#BESTPOSA,FILE,0,40.5,FINESTEERING,2315,478874.100,02001000,cdba,17139;SOL_COMPUTED,PSRDIFF,17.60160924725,78.12657919354,526.4996,-76.2000,WGS84,0.5612,0.6186,1.3662,"0",5.100,0.000,45,6,6,0,00,88,00,01*e76a12e3
#BESTPOSA,FILE,0,40.5,FINESTEERING,2315,478874.200,02001000,cdba,17139;SOL_COMPUTED,PSRDIFF,17.60161233773,78.12657905761,526.4994,-76.2000,WGS84,0.5616,0.6198,1.3668,"0",5.200,0.000,45,6,6,0,00,88,00,01*350ad343
#BESTPOSA,FILE,0,40.5,FINESTEERING,2315,478874.300,02001000,cdba,17139;SOL_COMPUTED,PSRDIFF,17.60161547000,78.12657894984,526.5028,-76.2000,WGS84,0.5619,0.6211,1.3676,"0",5.300,0.000,45,6,6,0,00,88,00,01*50534bbb
#BESTPOSA,FILE,0,40.5,FINESTEERING,2315,478874.400,02001000,cdba,17139;SOL_COMPUTED,PSRDIFF,17.60161857500,78.12657885317,526.5027,-76.2000,WGS84,0.5616,0.6220,1.3681,"0",5.400,0.000,45,6,6,0,00,88,00,01*2b6ea031
#BESTPOSA,FILE,0,40.5,FINESTEERING,2315,478874.500,02001000,cdba,17139;SOL_COMPUTED,PSRDIFF,17.60162166366,78.12657876633,526.5056,-76.2000,WGS84,0.5614,0.6223,1.3682,"0",5.500,0.000,44,6,6,0,00,88,00,01*a36613cd
#BESTPOSA,FILE,0,40.5,FINESTEERING,2315,478874.600,02001000,cdba,17139;SOL_COMPUTED,PSRDIFF,17.60162474055,78.12657867119,526.5103,-76.2000,WGS84,0.5618,0.6225,1.3685,"0",5.600,0.000,45,6,6,0,00,88,00,01*339cd6ff
#BESTPOSA,FILE,0,40.5,FINESTEERING,2315,478874.700,02001000,cdba,17139;SOL_COMPUTED,PSRDIFF,17.60162773063,78.12657859713,526.5127,-76.2000,WGS84,0.5620,0.6219,1.3686,"0",5.700,0.000,45,6,6,0,00,88,00,01*f9a16ea0
#BESTPOSA,FILE,0,40.5,FINESTEERING,2315,478874.800,02001000,cdba,17139;SOL_COMPUTED,PSRDIFF,17.60163060946,78.12657854842,526.5238,-76.2000,WGS84,0.5612,0.6213,1.3677,"0",5.800,0.000,45,6,6,0,00,88,00,01*1f680d08
#BESTPOSA,FILE,0,40.5,FINESTEERING,2315,478874.900,02001000,cdba,17139;SOL_COMPUTED,PSRDIFF,17.60163339222,78.12657845498,526.5243,-76.2000,WGS84,0.5610,0.6198,1.3666,"0",5.900,0.000,45,6,6,0,00,88,00,01*7173d8dc
#BESTPOSA,FILE,0,40.5,FINESTEERING,2315,478875.000,02001000,cdba,17139;SOL_COMPUTED,PSRDIFF,17.60163613269,78.12657842501,526.5300,-76.2000,WGS84,0.5607,0.6179,1.3655,"0",6.000,0.000,45,6,6,0,00,88,00,01*ee212e18
#BESTPOSA,FILE,0,39.5,FINESTEERING,2315,478875.100,02001000,cdba,17139;SOL_COMPUTED,PSRDIFF,17.60163879601,78.12657840726,526.5339,-76.2000,WGS84,0.5603,0.6166,1.3641,"0",6.100,0.000,45,6,6,0,00,88,00,01*fd756a54
#BESTPOSA,FILE,0,39.5,FINESTEERING,2315,478875.200,02001000,cdba,17139;SOL_COMPUTED,PSRDIFF,17.60164143103,78.12657835342,526.5396,-76.2000,WGS84,0.5603,0.6158,1.3633,"0",6.200,0.000,45,6,6,0,00,88,00,01*b3237001
#BESTPOSA,FILE,0,39.5,FINESTEERING,2315,478875.300,02001000,cdba,17139;SOL_COMPUTED,PSRDIFF,17.60164401582,78.12657830968,526.5414,-76.2000,WGS84,0.5595,0.6153,1.3624,"0",6.300,0.000,45,6,6,0,00,88,00,01*5a633e67
#BESTPOSA,FILE,0,39.5,FINESTEERING,2315,478875.400,02001000,cdba,17139;SOL_COMPUTED,PSRDIFF,17.60164660211,78.12657829199,526.5477,-76.2000,WGS84,0.5593,0.6149,1.3622,"0",6.400,0.000,45,6,6,0,00,88,00,01*e3927c7f
#BESTPOSA,FILE,0,39.5,FINESTEERING,2315,478875.500,02001000,cdba,17139;SOL_COMPUTED,PSRDIFF,17.60164918287,78.12657826369,526.5526,-76.2000,WGS84,0.5596,0.6137,1.3619,"0",6.500,0.000,44,6,6,0,00,88,00,01*4744d7a6
#BESTPOSA,FILE,0,39.5,FINESTEERING,2315,478875.600,02001000,cdba,17139;SOL_COMPUTED,PSRDIFF,17.60165184739,78.12657821081,526.5571,-76.2000,WGS84,0.5604,0.6130,1.3621,"0",6.600,0.000,44,6,6,0,00,88,00,01*7874aec0
#BESTPOSA,FILE,0,39.5,FINESTEERING,2315,478875.700,02001000,cdba,17139;SOL_COMPUTED,PSRDIFF,17.60165451504,78.12657816949,526.5658,-76.2000,WGS84,0.5605,0.6124,1.3618,"0",6.700,0.000,45,6,6,0,00,88,00,01*ed053880
#BESTPOSA,FILE,0,39.5,FINESTEERING,2315,478875.800,02001000,cdba,17139;SOL_COMPUTED,PSRDIFF,17.60165724449,78.12657815238,526.5754,-76.2000,WGS84,0.5601,0.6115,1.3610,"0",6.800,0.000,45,6,6,0,00,88,00,01*362482ae
#BESTPOSA,FILE,0,39.5,FINESTEERING,2315,478875.900,02001000,cdba,17139;SOL_COMPUTED,PSRDIFF,17.60165992201,78.12657813705,526.5822,-76.2000,WGS84,0.5598,0.6105,1.3607,"0",6.900,0.000,45,6,6,0,00,88,00,01*b75501fd
#BESTPOSA,FILE,0,39.5,FINESTEERING,2315,478876.000,02001000,cdba,17139;SOL_COMPUTED,INS_PSRDIFF,17.60166437664,78.12657796824,526.3475,-76.2000,WGS84,0.0820,0.0859,0.0726,"0",6.000,0.000,45,6,6,0,00,88,00,01*57194e18
#BESTPOSA,FILE,0,37.5,FINESTEERING,2315,478876.100,02001000,cdba,17139;SOL_COMPUTED,INS_PSRDIFF,17.60166707461,78.12657790291,526.3449,-76.2000,WGS84,0.0940,0.0980,0.0832,"0",7.000,0.000,45,6,6,0,00,88,00,01*f473f762
#BESTPOSA,FILE,0,37.5,FINESTEERING,2315,478876.200,02001000,cdba,17139;SOL_COMPUTED,INS_PSRDIFF,17.60166982948,78.12657785281,526.3437,-76.2000,WGS84,0.0940,0.0980,0.0832,"0",7.000,0.000,45,6,6,0,00,88,00,01*532acf4b
#BESTPOSA,FILE,0,37.5,FINESTEERING,2315,478876.300,02001000,cdba,17139;SOL_COMPUTED,INS_PSRDIFF,17.60167264288,78.12657779474,526.3474,-76.2000,WGS84,0.0940,0.0980,0.0832,"0",7.000,0.000,45,6,6,0,00,88,00,01*07afc04a
#BESTPOSA,FILE,0,37.5,FINESTEERING,2315,478876.400,02001000,cdba,17139;SOL_COMPUTED,INS_PSRDIFF,17.60167549203,78.12657773852,526.3539,-76.2000,WGS84,0.0940,0.0980,0.0832,"0",7.000,0.000,45,6,6,0,00,88,00,01*c335bb5e
#BESTPOSA,FILE,0,37.5,FINESTEERING,2315,478876.500,02001000,cdba,17139;SOL_COMPUTED,INS_PSRDIFF,17.60167836069,78.12657767920,526.3585,-76.2000,WGS84,0.0940,0.0980,0.0832,"0",7.000,0.000,45,6,6,0,00,88,00,01*1856cbb6
#BESTPOSA,FILE,0,37.5,FINESTEERING,2315,478876.600,02001000,cdba,17139;SOL_COMPUTED,INS_PSRDIFF,17.60168126307,78.12657762627,526.3603,-76.2000,WGS84,0.0940,0.0980,0.0832,"0",7.000,0.000,45,6,6,0,00,88,00,01*cd035201
#BESTPOSA,FILE,0,37.5,FINESTEERING,2315,478876.700,02001000,cdba,17139;SOL_COMPUTED,INS_PSRDIFF,17.60168420820,78.12657758064,526.3624,-76.2000,WGS84,0.0940,0.0980,0.0832,"0",7.000,0.000,45,6,6,0,00,88,00,01*5837ed34
#BESTPOSA,FILE,0,37.5,FINESTEERING,2315,478876.800,02001000,cdba,17139;SOL_COMPUTED,INS_PSRDIFF,17.60168718236,78.12657753135,526.3659,-76.2000,WGS84,0.0940,0.0980,0.0832,"0",7.000,0.000,45,6,6,0,00,88,00,01*6214555a
#BESTPOSA,FILE,0,37.5,FINESTEERING,2315,478876.900,02001000,cdba,17139;SOL_COMPUTED,INS_PSRDIFF,17.60169017175,78.12657746959,526.3684,-76.2000,WGS84,0.0940,0.0980,0.0832,"0",7.000,0.000,45,6,6,0,00,88,00,01*a82b22cb
#BESTPOSA,FILE,0,37.5,FINESTEERING,2315,478877.000,02001000,cdba,17139;SOL_COMPUTED,INS_PSRDIFF,17.60169319544,78.12657741172,526.3705,-76.2000,WGS84,0.0940,0.0980,0.0832,"0",7.000,0.000,45,6,6,0,00,88,00,01*1094f48c
#BESTPOSA,FILE,0,37.5,FINESTEERING,2315,478877.100,02001000,cdba,17139;SOL_COMPUTED,INS_PSRDIFF,17.60169626111,78.12657735374,526.3718,-76.2000,WGS84,0.1056,0.1094,0.0946,"0",6.000,0.000,44,6,6,0,00,88,00,01*55204b97
#BESTPOSA,FILE,0,38.0,FINESTEERING,2315,478877.200,02001000,cdba,17139;SOL_COMPUTED,INS_PSRDIFF,17.60169935608,78.12657730039,526.3735,-76.2000,WGS84,0.1056,0.1094,0.0946,"0",6.000,0.000,44,6,6,0,00,88,00,01*dd008afd
#BESTPOSA,FILE,0,38.0,FINESTEERING,2315,478877.300,02001000,cdba,17139;SOL_COMPUTED,INS_PSRDIFF,17.60170247217,78.12657725503,526.3761,-76.2000,WGS84,0.1056,0.1094,0.0946,"0",6.000,0.000,44,6,6,0,00,88,00,01*259958c7
#BESTPOSA,FILE,0,38.0,FINESTEERING,2315,478877.400,02001000,cdba,17139;SOL_COMPUTED,INS_PSRDIFF,17.60170560217,78.12657720124,526.3790,-76.2000,WGS84,0.1056,0.1094,0.0946,"0",6.000,0.000,44,6,6,0,00,88,00,01*96693af7
#BESTPOSA,FILE,0,38.0,FINESTEERING,2315,478877.500,02001000,cdba,17139;SOL_COMPUTED,INS_PSRDIFF,17.60170875564,78.12657714757,526.3807,-76.2000,WGS84,0.1056,0.1094,0.0946,"0",6.000,0.000,44,6,6,0,00,88,00,01*a7440ce0
#BESTPOSA,FILE,0,38.0,FINESTEERING,2315,478877.600,02001000,cdba,17139;SOL_COMPUTED,INS_PSRDIFF,17.60171195330,78.12657709372,526.3831,-76.2000,WGS84,0.1056,0.1094,0.0946,"0",6.000,0.000,44,6,6,0,00,88,00,01*f61bb1e6
#BESTPOSA,FILE,0,38.0,FINESTEERING,2315,478877.700,02001000,cdba,17139;SOL_COMPUTED,INS_PSRDIFF,17.60171519271,78.12657704345,526.3862,-76.2000,WGS84,0.1056,0.1094,0.0946,"0",6.000,0.000,44,6,6,0,00,88,00,01*21b2b23f
#BESTPOSA,FILE,0,38.0,FINESTEERING,2315,478877.800,02001000,cdba,17139;SOL_COMPUTED,INS_PSRDIFF,17.60171844298,78.12657700213,526.3898,-76.2000,WGS84,0.1056,0.1094,0.0946,"0",6.000,0.000,44,6,6,0,00,88,00,01*30aaee9e
#BESTPOSA,FILE,0,38.0,FINESTEERING,2315,478877.900,02001000,cdba,17139;SOL_COMPUTED,INS_PSRDIFF,17.60172171171,78.12657695208,526.3936,-76.2000,WGS84,0.1056,0.1094,0.0946,"0",6.000,0.000,44,6,6,0,00,88,00,01*f0b75487
#BESTPOSA,FILE,0,38.0,FINESTEERING,2315,478878.000,02001000,cdba,17139;SOL_COMPUTED,INS_PSRDIFF,17.60172500642,78.12657690427,526.3977,-76.2000,WGS84,0.1056,0.1094,0.0946,"0",6.000,0.000,44,6,6,0,00,88,00,01*f076efb0
#BESTPOSA,FILE,0,38.0,FINESTEERING,2315,478878.100,02001000,cdba,17139;SOL_COMPUTED,INS_RTKFIXED,17.60172834795,78.12657681261,526.4010,-76.2000,WGS84,0.0778,0.0793,0.0744,"0",1.000,0.000,46,44,44,42,00,21,3f,37*53b9be28
#BESTPOSA,FILE,0,39.0,FINESTEERING,2315,478878.200,02001000,cdba,17139;SOL_COMPUTED,INS_RTKFIXED,17.60173171659,78.12657672760,526.4048,-76.2000,WGS84,0.0778,0.0793,0.0744,"0",1.000,0.000,46,44,44,42,00,21,3f,37*b6668d26
#BESTPOSA,FILE,0,39.0,FINESTEERING,2315,478878.300,02001000,cdba,17139;SOL_COMPUTED,INS_RTKFIXED,17.60173508202,78.12657664006,526.4074,-76.2000,WGS84,0.0778,0.0793,0.0744,"0",1.000,0.000,46,44,44,42,00,21,3f,37*170dc5a0
#BESTPOSA,FILE,0,39.0,FINESTEERING,2315,478878.400,02001000,cdba,17139;SOL_COMPUTED,INS_RTKFIXED,17.60173845113,78.12657656141,526.4092,-76.2000,WGS84,0.0778,0.0793,0.0744,"0",1.000,0.000,46,44,44,42,00,21,3f,37*7648a761
#BESTPOSA,FILE,0,39.0,FINESTEERING,2315,478878.500,02001000,cdba,17139;SOL_COMPUTED,INS_RTKFIXED,17.60174185747,78.12657647636,526.4110,-76.2000,WGS84,0.0778,0.0793,0.0744,"0",1.000,0.000,46,44,44,42,00,21,3f,37*22fe9c67
#BESTPOSA,FILE,0,39.0,FINESTEERING,2315,478878.600,02001000,cdba,17139;SOL_COMPUTED,INS_RTKFIXED,17.60174529372,78.12657637536,526.4115,-76.2000,WGS84,0.0778,0.0793,0.0744,"0",1.000,0.000,46,44,44,42,00,21,3f,37*d4d4d0d2
#BESTPOSA,FILE,0,39.0,FINESTEERING,2315,478878.700,02001000,cdba,17139;SOL_COMPUTED,INS_RTKFIXED,17.60174875116,78.12657629155,526.4120,-76.2000,WGS84,0.0778,0.0793,0.0744,"0",1.000,0.000,46,44,44,42,00,21,3f,37*65f7a619
#BESTPOSA,FILE,0,39.0,FINESTEERING,2315,478878.800,02001000,cdba,17139;SOL_COMPUTED,INS_RTKFIXED,17.60175223307,78.12657619877,526.4136,-76.2000,WGS84,0.0778,0.0793,0.0744,"0",1.000,0.000,46,44,44,42,00,21,3f,37*61d99213
#BESTPOSA,FILE,0,39.0,FINESTEERING,2315,478878.900,02001000,cdba,17139;SOL_COMPUTED,INS_RTKFIXED,17.60175574152,78.12657610835,526.4179,-76.2000,WGS84,0.0778,0.0793,0.0744,"0",1.000,0.000,46,44,44,42,00,21,3f,37*1a660432
#BESTPOSA,FILE,0,39.0,FINESTEERING,2315,478879.000,02001000,cdba,17139;SOL_COMPUTED,INS_RTKFIXED,17.60175928700,78.12657602705,526.4239,-76.2000,WGS84,0.0778,0.0793,0.0744,"0",1.000,0.000,46,44,44,42,00,21,3f,37*4e5b0f0d
#BESTPOSA,FILE,0,36.5,FINESTEERING,2315,478879.100,02001000,cdba,17139;SOL_COMPUTED,INS_RTKFIXED,17.60176284148,78.12657596119,526.4283,-76.2000,WGS84,0.0675,0.0685,0.0655,"0",2.000,0.000,46,44,44,41,00,21,3f,37*bf1d78a4
#BESTPOSA,FILE,0,36.5,FINESTEERING,2315,478879.200,02001000,cdba,17139;SOL_COMPUTED,INS_RTKFIXED,17.60176640945,78.12657590531,526.4302,-76.2000,WGS84,0.0675,0.0685,0.0655,"0",2.000,0.000,46,44,44,41,00,21,3f,37*8147f411
#BESTPOSA,FILE,0,36.5,FINESTEERING,2315,478879.300,02001000,cdba,17139;SOL_COMPUTED,INS_RTKFIXED,17.60176999222,78.12657585034,526.4327,-76.2000,WGS84,0.0675,0.0685,0.0655,"0",2.000,0.000,46,44,44,41,00,21,3f,37*88f99801
#BESTPOSA,FILE,0,36.5,FINESTEERING,2315,478879.400,02001000,cdba,17139;SOL_COMPUTED,INS_RTKFIXED,17.60177359208,78.12657580067,526.4356,-76.2000,WGS84,0.0675,0.0685,0.0655,"0",2.000,0.000,46,44,44,41,00,21,3f,37*72b470ac
#BESTPOSA,FILE,0,36.5,FINESTEERING,2315,478879.500,02001000,cdba,17139;SOL_COMPUTED,INS_RTKFIXED,17.60177719925,78.12657575912,526.4369,-76.2000,WGS84,0.0675,0.0685,0.0655,"0",2.000,0.000,46,44,44,41,00,21,3f,37*1ebc57f4
#BESTPOSA,FILE,0,36.5,FINESTEERING,2315,478879.600,02001000,cdba,17139;SOL_COMPUTED,INS_RTKFIXED,17.60178082841,78.12657571392,526.4365,-76.2000,WGS84,0.0675,0.0685,0.0655,"0",2.000,0.000,46,44,44,41,00,21,3f,37*0bfc63ce
#BESTPOSA,FILE,0,36.5,FINESTEERING,2315,478879.700,02001000,cdba,17139;SOL_COMPUTED,INS_RTKFIXED,17.60178449419,78.12657567014,526.4379,-76.2000,WGS84,0.0675,0.0685,0.0655,"0",2.000,0.000,46,44,44,41,00,21,3f,37*d7bd921a
#BESTPOSA,FILE,0,36.5,FINESTEERING,2315,478879.800,02001000,cdba,17139;SOL_COMPUTED,INS_RTKFIXED,17.60178819216,78.12657561376,526.4403,-76.2000,WGS84,0.0675,0.0685,0.0655,"0",2.000,0.000,46,44,44,41,00,21,3f,37*75e516f7
#BESTPOSA,FILE,0,36.5,FINESTEERING,2315,478879.900,02001000,cdba,17139;SOL_COMPUTED,INS_RTKFIXED,17.60179189893,78.12657557394,526.4426,-76.2000,WGS84,0.0675,0.0685,0.0655,"0",2.000,0.000,46,44,44,41,00,21,3f,37*3a66a948
#BESTPOSA,FILE,0,36.5,FINESTEERING,2315,478880.000,02001000,cdba,17139;SOL_COMPUTED,NARROW_INT,17.60179566257,78.12657551379,526.4533,-76.2000,WGS84,0.0084,0.0093,0.0253,"0",2.000,0.000,46,46,46,43,00,21,3f,37*05cd3867
#BESTPOSA,FILE,0,36.5,FINESTEERING,2315,478880.100,02001000,cdba,17139;SOL_COMPUTED,NARROW_INT,17.60179941072,78.12657549979,526.4547,-76.2000,WGS84,0.0086,0.0094,0.0255,"0",2.100,0.000,46,46,46,43,00,21,3f,37*058f8bed
#BESTPOSA,FILE,0,37.0,FINESTEERING,2315,478880.200,02001000,cdba,17139;SOL_COMPUTED,NARROW_INT,17.60180319887,78.12657546315,526.4611,-76.2000,WGS84,0.0086,0.0094,0.0256,"0",2.200,0.000,46,46,46,43,00,21,3f,37*bb38f966
#BESTPOSA,FILE,0,37.0,FINESTEERING,2315,478880.300,02001000,cdba,17139;SOL_COMPUTED,NARROW_INT,17.60180699075,78.12657541502,526.4646,-76.2000,WGS84,0.0086,0.0095,0.0257,"0",2.300,0.000,46,46,46,43,00,21,3f,37*9bbba45a
#BESTPOSA,FILE,0,37.0,FINESTEERING,2315,478880.400,02001000,cdba,17139;SOL_COMPUTED,NARROW_INT,17.60181078299,78.12657537547,526.4693,-76.2000,WGS84,0.0087,0.0095,0.0257,"0",2.400,0.000,46,46,46,43,00,21,3f,37*93463426
#BESTPOSA,FILE,0,37.0,FINESTEERING,2315,478880.500,02001000,cdba,17139;SOL_COMPUTED,NARROW_INT,17.60181460729,78.12657533244,526.4664,-76.2000,WGS84,0.0087,0.0095,0.0258,"0",2.500,0.000,46,46,46,43,00,21,3f,37*da7ed1ae
#BESTPOSA,FILE,0,37.0,FINESTEERING,2315,478880.600,02001000,cdba,17139;SOL_COMPUTED,NARROW_INT,17.60181844956,78.12657528749,526.4719,-76.2000,WGS84,0.0087,0.0096,0.0259,"0",2.600,0.000,47,46,46,43,00,21,3f,37*5a11fba3
#BESTPOSA,FILE,0,37.0,FINESTEERING,2315,478880.700,02001000,cdba,17139;SOL_COMPUTED,NARROW_INT,17.60182230102,78.12657524276,526.4734,-76.2000,WGS84,0.0087,0.0096,0.0259,"0",2.700,0.000,47,46,46,43,00,21,3f,37*7b37e9f9
#BESTPOSA,FILE,0,37.0,FINESTEERING,2315,478880.800,02001000,cdba,17139;SOL_COMPUTED,NARROW_INT,17.60182616470,78.12657523284,526.4775,-76.2000,WGS84,0.0088,0.0097,0.0260,"0",2.800,0.000,48,46,46,43,00,21,3f,37*46466c51
#BESTPOSA,FILE,0,37.0,FINESTEERING,2315,478880.900,02001000,cdba,17139;SOL_COMPUTED,NARROW_INT,17.60183005894,78.12657520223,526.4808,-76.2000,WGS84,0.0088,0.0097,0.0261,"0",2.900,0.000,48,46,46,43,00,21,3f,37*f821c3de
#BESTPOSA,FILE,0,37.0,FINESTEERING,2315,478881.000,02001000,cdba,17139;SOL_COMPUTED,NARROW_INT,17.60183395118,78.12657517221,526.4820,-76.2000,WGS84,0.0089,0.0097,0.0262,"0",3.000,0.000,48,46,46,43,00,21,3f,37*2c8584fb
#BESTPOSA,FILE,0,37.0,FINESTEERING,2315,478881.100,02001000,cdba,17139;SOL_COMPUTED,NARROW_INT,17.60183787232,78.12657513012,526.4869,-76.2000,WGS84,0.0090,0.0099,0.0264,"0",3.100,0.000,47,47,47,44,00,21,3f,37*e0800e22
#BESTPOSA,FILE,0,38.5,FINESTEERING,2315,478881.200,02001000,cdba,17139;SOL_COMPUTED,NARROW_INT,17.60184181155,78.12657509127,526.4899,-76.2000,WGS84,0.0090,0.0099,0.0265,"0",3.200,0.000,48,47,47,44,00,21,3f,37*b94abb48
#BESTPOSA,FILE,0,38.5,FINESTEERING,2315,478881.300,02001000,cdba,17139;SOL_COMPUTED,NARROW_INT,17.60184575427,78.12657504311,526.4970,-76.2000,WGS84,0.0086,0.0094,0.0256,"0",2.300,0.000,47,47,47,44,00,21,3f,37*c3029554
#BESTPOSA,FILE,0,38.5,FINESTEERING,2315,478881.400,02001000,cdba,17139;SOL_COMPUTED,NARROW_INT,17.60184971368,78.12657503963,526.5019,-76.2000,WGS84,0.0086,0.0094,0.0257,"0",2.400,0.000,48,47,47,44,00,21,3f,37*4e4fff09
#BESTPOSA,FILE,0,38.5,FINESTEERING,2315,478881.500,02001000,cdba,17139;SOL_COMPUTED,NARROW_INT,17.60185369471,78.12657502048,526.5105,-76.2000,WGS84,0.0087,0.0095,0.0258,"0",2.500,0.000,48,47,47,44,00,21,3f,37*74f10d9d
#BESTPOSA,FILE,0,38.5,FINESTEERING,2315,478881.600,02001000,cdba,17139;SOL_COMPUTED,NARROW_INT,17.60185768286,78.12657498616,526.5109,-76.2000,WGS84,0.0087,0.0095,0.0259,"0",2.600,0.000,48,47,47,44,00,21,3f,37*afc1527b
#BESTPOSA,FILE,0,38.5,FINESTEERING,2315,478881.700,02001000,cdba,17139;SOL_COMPUTED,NARROW_INT,17.60186167747,78.12657493909,526.5154,-76.2000,WGS84,0.0087,0.0096,0.0259,"0",2.700,0.000,48,47,47,44,00,21,3f,37*d4175bc9
#BESTPOSA,FILE,0,38.5,FINESTEERING,2315,478881.800,02001000,cdba,17139;SOL_COMPUTED,NARROW_INT,17.60186568901,78.12657488675,526.5148,-76.2000,WGS84,0.0088,0.0096,0.0260,"0",2.800,0.000,48,47,47,44,00,21,3f,37*629b935f
#BESTPOSA,FILE,0,38.5,FINESTEERING,2315,478881.900,02001000,cdba,17139;SOL_COMPUTED,NARROW_INT,17.60186974811,78.12657486589,526.5187,-76.2000,WGS84,0.0088,0.0096,0.0261,"0",2.900,0.000,48,47,47,44,00,21,3f,37*62dd376f
#BESTPOSA,FILE,0,38.5,FINESTEERING,2315,478882.000,02001000,cdba,17139;SOL_COMPUTED,NARROW_INT,17.60187383946,78.12657485255,526.5236,-76.2000,WGS84,0.0088,0.0097,0.0261,"0",3.000,0.000,48,47,47,44,00,21,3f,37*0a65ef62
#BESTPOSA,FILE,0,36.0,FINESTEERING,2315,478882.100,02001000,cdba,17139;SOL_COMPUTED,NARROW_INT,17.60187791407,78.12657482637,526.5299,-76.2000,WGS84,0.0090,0.0098,0.0263,"0",3.100,0.000,48,48,48,45,00,21,3f,37*6dd55652
#BESTPOSA,FILE,0,36.0,FINESTEERING,2315,478882.200,02001000,cdba,17139;SOL_COMPUTED,NARROW_INT,17.60188196819,78.12657477014,526.5322,-76.2000,WGS84,0.0090,0.0098,0.0264,"0",3.200,0.000,49,48,48,45,00,21,3f,37*2c29fd16
#BESTPOSA,FILE,0,36.0,FINESTEERING,2315,478882.300,02001000,cdba,17139;SOL_COMPUTED,NARROW_INT,17.60188601483,78.12657471510,526.5354,-76.2000,WGS84,0.0090,0.0098,0.0265,"0",3.300,0.000,49,48,48,45,00,21,3f,37*03859f69
#BESTPOSA,FILE,0,36.0,FINESTEERING,2315,478882.400,02001000,cdba,17139;SOL_COMPUTED,NARROW_INT,17.60189007868,78.12657469438,526.5386,-76.2000,WGS84,0.0090,0.0099,0.0265,"0",3.400,0.000,49,48,48,45,00,21,3f,37*357556b4
#BESTPOSA,FILE,0,36.0,FINESTEERING,2315,478882.500,02001000,cdba,17139;SOL_COMPUTED,NARROW_INT,17.60189417463,78.12657466537,526.5390,-76.2000,WGS84,0.0091,0.0099,0.0266,"0",3.500,0.000,49,48,48,45,00,21,3f,37*24750d41
#BESTPOSA,FILE,0,36.0,FINESTEERING,2315,478882.600,02001000,cdba,17139;SOL_COMPUTED,NARROW_INT,17.60189829657,78.12657460404,526.5436,-76.2000,WGS84,0.0091,0.0100,0.0267,"0",3.600,0.000,49,48,48,45,00,21,3f,37*ab4079e5
#BESTPOSA,FILE,0,36.0,FINESTEERING,2315,478882.700,02001000,cdba,17139;SOL_COMPUTED,NARROW_INT,17.60190240475,78.12657454458,526.5460,-76.2000,WGS84,0.0091,0.0100,0.0267,"0",3.700,0.000,49,48,48,45,00,21,3f,37*40e57a42
#BESTPOSA,FILE,0,36.0,FINESTEERING,2315,478882.800,02001000,cdba,17139;SOL_COMPUTED,NARROW_INT,17.60190649190,78.12657453057,526.5506,-76.2000,WGS84,0.0092,0.0100,0.0268,"0",3.800,0.000,48,47,47,44,00,21,3f,37*0a1ebdc9
#BESTPOSA,FILE,0,36.0,FINESTEERING,2315,478882.900,02001000,cdba,17139;SOL_COMPUTED,NARROW_INT,17.60191057668,78.12657451875,526.5522,-76.2000,WGS84,0.0092,0.0101,0.0269,"0",3.900,0.000,49,47,47,44,00,21,3f,37*4d2c1886
#BESTPOSA,FILE,0,36.0,FINESTEERING,2315,478883.000,02001000,cdba,17139;SOL_COMPUTED,NARROW_INT,17.60191466960,78.12657452622,526.5561,-76.2000,WGS84,0.0092,0.0101,0.0269,"0",4.000,0.000,48,47,47,44,00,21,3f,37*168e5c73
#BESTPOSA,FILE,0,36.0,FINESTEERING,2315,478883.100,02001000,cdba,17139;SOL_COMPUTED,NARROW_INT,17.60191873409,78.12657448830,526.5569,-76.2000,WGS84,0.0093,0.0102,0.0272,"0",4.100,0.000,48,48,48,45,00,21,3f,37*ee6f9615
#BESTPOSA,FILE,0,38.0,FINESTEERING,2315,478883.200,02001000,cdba,17139;SOL_COMPUTED,PSRDIFF,17.60192100586,78.12657688871,526.8476,-76.2000,WGS84,0.5441,0.5863,1.5389,"0",5.300,0.000,48,14,14,0,00,08,00,11*f380d11a
#BESTPOSA,FILE,0,38.0,FINESTEERING,2315,478883.300,02001000,cdba,17139;SOL_COMPUTED,PSRDIFF,17.60192507815,78.12657679837,526.8581,-76.2000,WGS84,0.5440,0.5860,1.5393,"0",5.400,0.000,48,14,14,0,00,08,00,11*9a9639ba
#BESTPOSA,FILE,0,38.0,FINESTEERING,2315,478883.400,02001000,cdba,17139;SOL_COMPUTED,PSRDIFF,17.60192899597,78.12657689242,526.8485,-76.2000,WGS84,0.5438,0.5851,1.5397,"0",5.500,0.000,48,14,14,0,00,08,00,11*5d4f136e
#BESTPOSA,FILE,0,38.0,FINESTEERING,2315,478883.500,02001000,cdba,17139;SOL_COMPUTED,PSRDIFF,17.60193295078,78.12657698177,526.8433,-76.2000,WGS84,0.5439,0.5847,1.5392,"0",5.600,0.000,48,14,14,0,00,08,00,11*eb31b8dc
#BESTPOSA,FILE,0,38.0,FINESTEERING,2315,478883.600,02001000,cdba,17139;SOL_COMPUTED,PSRDIFF,17.60193691664,78.12657700288,526.8279,-76.2000,WGS84,0.5438,0.5840,1.5388,"0",5.700,0.000,48,14,14,0,00,08,00,11*1f286a33
#BESTPOSA,FILE,0,38.0,FINESTEERING,2315,478883.700,02001000,cdba,17139;SOL_COMPUTED,PSRDIFF,17.60194087406,78.12657690889,526.8445,-76.2000,WGS84,0.5443,0.5855,1.5455,"0",5.800,0.000,48,14,14,0,00,08,00,11*411f2489
#BESTPOSA,FILE,0,38.0,FINESTEERING,2315,478883.800,02001000,cdba,17139;SOL_COMPUTED,PSRDIFF,17.60194472796,78.12657681496,526.8645,-76.2000,WGS84,0.5445,0.5860,1.5464,"0",5.900,0.000,48,14,14,0,00,08,00,11*a0db1cee
#BESTPOSA,FILE,0,38.0,FINESTEERING,2315,478883.900,02001000,cdba,17139;SOL_COMPUTED,PSRDIFF,17.60194851432,78.12657678327,526.8674,-76.2000,WGS84,0.5446,0.5853,1.5439,"0",6.000,0.000,48,14,14,0,00,08,00,11*bf0e55f0
#BESTPOSA,FILE,0,38.0,FINESTEERING,2315,478884.000,02001000,cdba,17139;SOL_COMPUTED,PSRDIFF,17.60195231210,78.12657681922,526.8359,-76.2000,WGS84,0.5449,0.5856,1.5429,"0",6.100,0.000,48,14,14,0,00,08,00,11*45ea09b4
#BESTPOSA,FILE,0,36.5,FINESTEERING,2315,478884.100,02001000,cdba,17139;SOL_COMPUTED,NARROW_INT,17.60195791619,78.12657429135,526.5747,-76.2000,WGS84,0.0090,0.0097,0.0273,"0",3.100,0.000,48,48,48,45,00,21,3f,37*a3c18a08
#BESTPOSA,FILE,0,36.5,FINESTEERING,2315,478884.200,02001000,cdba,17139;SOL_COMPUTED,NARROW_INT,17.60196156147,78.12657426202,526.5784,-76.2000,WGS84,0.0090,0.0098,0.0273,"0",3.200,0.000,48,48,48,45,00,21,3f,37*86240161
#BESTPOSA,FILE,0,36.5,FINESTEERING,2315,478884.300,02001000,cdba,17139;SOL_COMPUTED,NARROW_INT,17.60196516307,78.12657425036,526.5812,-76.2000,WGS84,0.0090,0.0098,0.0274,"0",3.300,0.000,48,48,48,45,00,21,3f,37*7ffc0e97
#BESTPOSA,FILE,0,36.5,FINESTEERING,2315,478884.400,02001000,cdba,17139;SOL_COMPUTED,NARROW_INT,17.60196870774,78.12657421834,526.5828,-76.2000,WGS84,0.0091,0.0098,0.0275,"0",3.400,0.000,48,48,48,45,00,21,3f,37*98f3ae8f
#BESTPOSA,FILE,0,36.5,FINESTEERING,2315,478884.500,02001000,cdba,17139;SOL_COMPUTED,NARROW_INT,17.60197219335,78.12657421382,526.5852,-76.2000,WGS84,0.0091,0.0099,0.0275,"0",3.500,0.000,48,48,48,44,00,21,3f,37*11616127
#BESTPOSA,FILE,0,36.5,FINESTEERING,2315,478884.600,02001000,cdba,17139;SOL_COMPUTED,NARROW_INT,17.60197562956,78.12657420577,526.5864,-76.2000,WGS84,0.0091,0.0099,0.0276,"0",3.600,0.000,48,48,48,44,00,21,3f,37*ae34569a
#BESTPOSA,FILE,0,36.5,FINESTEERING,2315,478884.700,02001000,cdba,17139;SOL_COMPUTED,NARROW_INT,17.60197901879,78.12657418028,526.5843,-76.2000,WGS84,0.0091,0.0099,0.0276,"0",3.700,0.000,48,48,48,44,00,21,3f,37*572644dc
#BESTPOSA,FILE,0,36.5,FINESTEERING,2315,478884.800,02001000,cdba,17139;SOL_COMPUTED,NARROW_INT,17.60198241720,78.12657415670,526.5888,-76.2000,WGS84,0.0092,0.0100,0.0277,"0",3.800,0.000,48,48,48,44,00,21,3f,37*0c7a04c9
#BESTPOSA,FILE,0,36.5,FINESTEERING,2315,478884.900,02001000,cdba,17139;SOL_COMPUTED,NARROW_INT,17.60198581534,78.12657412807,526.5910,-76.2000,WGS84,0.0092,0.0100,0.0277,"0",3.900,0.000,48,48,48,44,00,21,3f,37*37774bc7
#BESTPOSA,FILE,0,36.5,FINESTEERING,2315,478885.000,02001000,cdba,17139;SOL_COMPUTED,NARROW_INT,17.60198924195,78.12657413379,526.5932,-76.2000,WGS84,0.0092,0.0100,0.0278,"0",4.000,0.000,48,48,48,44,00,21,3f,37*ec13a272
#BESTPOSA,FILE,0,36.5,FINESTEERING,2315,478885.100,02001000,cdba,17139;SOL_COMPUTED,NARROW_INT,17.60199270874,78.12657414121,526.5989,-76.2000,WGS84,0.0093,0.0101,0.0280,"0",4.100,0.000,48,48,48,45,00,21,3f,37*fd30375c
#BESTPOSA,FILE,0,39.5,FINESTEERING,2315,478885.200,02001000,cdba,17139;SOL_COMPUTED,PSRDIFF,17.60199451008,78.12657692007,526.7532,-76.2000,WGS84,0.5427,0.5816,1.5316,"0",6.300,0.000,48,14,14,0,00,08,00,11*281ea8c4
#BESTPOSA,FILE,0,39.5,FINESTEERING,2315,478885.300,02001000,cdba,17139;SOL_COMPUTED,PSRDIFF,17.60199791712,78.12657687245,526.7727,-76.2000,WGS84,0.5434,0.5834,1.5366,"0",6.400,0.000,48,14,14,0,00,08,00,11*3eaba85a
#BESTPOSA,FILE,0,39.5,FINESTEERING,2315,478885.400,02001000,cdba,17139;SOL_COMPUTED,PSRDIFF,17.60200067302,78.12657548625,527.1566,-76.2000,WGS84,0.5497,0.6112,1.6072,"0",6.500,0.000,48,13,13,0,00,08,00,11*f28e8b2b
#BESTPOSA,FILE,0,39.5,FINESTEERING,2315,478885.500,02001000,cdba,17139;SOL_COMPUTED,PSRDIFF,17.60200472205,78.12657692503,526.7527,-76.2000,WGS84,0.5429,0.5814,1.5315,"0",6.600,0.000,48,14,14,0,00,08,00,11*f090cf47
#BESTPOSA,FILE,0,39.5,FINESTEERING,2315,478885.600,02001000,cdba,17139;SOL_COMPUTED,PSRDIFF,17.60200806787,78.12657671868,526.8144,-76.2000,WGS84,0.5440,0.5856,1.5425,"0",6.700,0.000,48,14,14,0,00,08,00,11*5f871e97
#BESTPOSA,FILE,0,39.5,FINESTEERING,2315,478885.700,02001000,cdba,17139;SOL_COMPUTED,PSRDIFF,17.60201139104,78.12657647399,526.8920,-76.2000,WGS84,0.5449,0.5907,1.5537,"0",6.800,0.000,48,14,14,0,00,08,00,11*38a500b3
#BESTPOSA,FILE,0,39.5,FINESTEERING,2315,478885.800,02001000,cdba,17139;SOL_COMPUTED,PSRDIFF,17.60201495727,78.12657635546,526.9155,-76.2000,WGS84,0.5447,0.5891,1.5492,"0",6.900,0.000,48,14,14,0,00,08,00,11*489bf42e
#BESTPOSA,FILE,0,39.5,FINESTEERING,2315,478885.900,02001000,cdba,17139;SOL_COMPUTED,PSRDIFF,17.60201815318,78.12657577444,527.0832,-76.2000,WGS84,0.5483,0.6006,1.5806,"0",7.000,0.000,48,14,14,0,00,08,00,11*be58ec1f
#BESTPOSA,FILE,0,39.5,FINESTEERING,2315,478886.000,02001000,cdba,17139;SOL_COMPUTED,PSRDIFF,17.60202142146,78.12657527532,527.2152,-76.2000,WGS84,0.5509,0.6108,1.6070,"0",7.100,0.000,48,13,13,0,00,08,00,11*3fc0884b
#BESTPOSA,FILE,0,37.0,FINESTEERING,2315,478886.100,02001000,cdba,17139;SOL_COMPUTED,NARROW_INT,17.60202712414,78.12657403898,526.6280,-76.2000,WGS84,0.0088,0.0091,0.0252,"0",3.100,0.000,48,48,48,45,00,21,3f,37*3e9a7248
#BESTPOSA,FILE,0,37.0,FINESTEERING,2315,478886.200,02001000,cdba,17139;SOL_COMPUTED,NARROW_INT,17.60203058781,78.12657402536,526.6338,-76.2000,WGS84,0.0088,0.0092,0.0252,"0",3.200,0.000,48,48,48,45,00,21,3f,37*b433d1ee
#BESTPOSA,FILE,0,37.0,FINESTEERING,2315,478886.300,02001000,cdba,17139;SOL_COMPUTED,NARROW_INT,17.60203407238,78.12657402311,526.6342,-76.2000,WGS84,0.0089,0.0092,0.0253,"0",3.300,0.000,48,48,48,45,00,21,3f,37*f50c7dd8
#BESTPOSA,FILE,0,37.0,FINESTEERING,2315,478886.400,02001000,cdba,17139;SOL_COMPUTED,NARROW_INT,17.60203751715,78.12657401131,526.6423,-76.2000,WGS84,0.0081,0.0085,0.0239,"0",1.400,0.000,48,48,48,45,00,21,3f,37*38956d54
#BESTPOSA,FILE,0,37.0,FINESTEERING,2315,478886.500,02001000,cdba,17139;SOL_COMPUTED,NARROW_INT,17.60204100287,78.12657398587,526.6423,-76.2000,WGS84,0.0082,0.0085,0.0239,"0",1.500,0.000,48,48,48,45,00,21,3f,37*e25014a6
#BESTPOSA,FILE,0,37.0,FINESTEERING,2315,478886.600,02001000,cdba,17139;SOL_COMPUTED,NARROW_INT,17.60204449482,78.12657394977,526.6481,-76.2000,WGS84,0.0082,0.0085,0.0240,"0",1.600,0.000,48,48,48,45,00,21,3f,37*8af1be7e
#BESTPOSA,FILE,0,37.0,FINESTEERING,2315,478886.700,02001000,cdba,17139;SOL_COMPUTED,NARROW_INT,17.60204801422,78.12657391749,526.6470,-76.2000,WGS84,0.0082,0.0086,0.0241,"0",1.700,0.000,48,48,48,45,00,21,3f,37*bea2d057
#BESTPOSA,FILE,0,37.0,FINESTEERING,2315,478886.800,02001000,cdba,17139;SOL_COMPUTED,NARROW_INT,17.60205152568,78.12657388938,526.6509,-76.2000,WGS84,0.0083,0.0086,0.0241,"0",1.800,0.000,48,48,48,45,00,21,3f,37*7b154869
#BESTPOSA,FILE,0,37.0,FINESTEERING,2315,478886.900,02001000,cdba,17139;SOL_COMPUTED,NARROW_INT,17.60205504031,78.12657385163,526.6522,-76.2000,WGS84,0.0083,0.0087,0.0242,"0",1.900,0.000,48,48,48,45,00,21,3f,37*321383fb
#BESTPOSA,FILE,0,37.0,FINESTEERING,2315,478887.000,02001000,cdba,17139;SOL_COMPUTED,NARROW_INT,17.60205856187,78.12657383688,526.6503,-76.2000,WGS84,0.0083,0.0087,0.0243,"0",2.000,0.000,48,48,48,45,00,21,3f,37*c442b043
#BESTPOSA,FILE,0,35.5,FINESTEERING,2315,478887.100,02001000,cdba,17139;SOL_COMPUTED,NARROW_INT,17.60206210045,78.12657380547,526.6526,-76.2000,WGS84,0.0085,0.0088,0.0245,"0",2.100,0.000,48,48,48,45,00,21,3f,37*ad4290f4
#BESTPOSA,FILE,0,35.5,FINESTEERING,2315,478887.200,02001000,cdba,17139;SOL_COMPUTED,NARROW_INT,17.60206564184,78.12657373370,526.6546,-76.2000,WGS84,0.0085,0.0089,0.0245,"0",2.200,0.000,48,48,48,45,00,21,3f,37*603a708d
#BESTPOSA,FILE,0,35.5,FINESTEERING,2315,478887.300,02001000,cdba,17139;SOL_COMPUTED,NARROW_INT,17.60206921721,78.12657374098,526.6478,-76.2000,WGS84,0.0082,0.0089,0.0250,"0",1.300,0.000,48,48,48,45,00,21,3f,37*527cd668
#BESTPOSA,FILE,0,35.5,FINESTEERING,2315,478887.400,02001000,cdba,17139;SOL_COMPUTED,NARROW_INT,17.60207276583,78.12657369923,526.6461,-76.2000,WGS84,0.0083,0.0089,0.0251,"0",1.400,0.000,48,48,48,45,00,21,3f,37*9c1c3494
#BESTPOSA,FILE,0,35.5,FINESTEERING,2315,478887.500,02001000,cdba,17139;SOL_COMPUTED,NARROW_INT,17.60207633498,78.12657365477,526.6504,-76.2000,WGS84,0.0083,0.0090,0.0251,"0",1.500,0.000,48,48,48,45,00,21,3f,37*86655e7b
#BESTPOSA,FILE,0,35.5,FINESTEERING,2315,478887.600,02001000,cdba,17139;SOL_COMPUTED,NARROW_INT,17.60207991200,78.12657360231,526.6529,-76.2000,WGS84,0.0083,0.0090,0.0252,"0",1.600,0.000,47,47,47,44,00,21,3f,37*df851d49
#BESTPOSA,FILE,0,35.5,FINESTEERING,2315,478887.700,02001000,cdba,17139;SOL_COMPUTED,NARROW_INT,17.60208348761,78.12657352521,526.6539,-76.2000,WGS84,0.0084,0.0090,0.0253,"0",1.700,0.000,48,47,47,43,00,21,3f,37*a0ec91bf
#BESTPOSA,FILE,0,35.5,FINESTEERING,2315,478887.800,02001000,cdba,17139;SOL_COMPUTED,NARROW_INT,17.60208707834,78.12657345909,526.6572,-76.2000,WGS84,0.0084,0.0091,0.0253,"0",1.800,0.000,48,47,47,43,00,21,3f,37*080745b8
#BESTPOSA,FILE,0,35.5,FINESTEERING,2315,478887.900,02001000,cdba,17139;SOL_COMPUTED,NARROW_INT,17.60209066268,78.12657342473,526.6520,-76.2000,WGS84,0.0084,0.0091,0.0254,"0",1.900,0.000,48,47,47,43,00,21,3f,37*f5ccb245
#BESTPOSA,FILE,0,35.5,FINESTEERING,2315,478888.000,02001000,cdba,17139;SOL_COMPUTED,NARROW_INT,17.60209427875,78.12657336419,526.6584,-76.2000,WGS84,0.0084,0.0091,0.0254,"0",2.000,0.000,48,47,47,43,00,21,3f,37*343eb147
#BESTPOSA,FILE,0,35.5,FINESTEERING,2315,478888.100,02001000,cdba,17139;SOL_COMPUTED,NARROW_INT,17.60209789992,78.12657330713,526.6583,-76.2000,WGS84,0.0086,0.0093,0.0256,"0",2.100,0.000,48,48,48,45,00,21,3f,37*5c5347a0
#BESTPOSA,FILE,0,35.5,FINESTEERING,2315,478888.200,02001000,cdba,17139;SOL_COMPUTED,NARROW_INT,17.60210152756,78.12657325078,526.6614,-76.2000,WGS84,0.0086,0.0093,0.0257,"0",2.200,0.000,49,48,48,46,00,21,3f,37*918b549d
#BESTPOSA,FILE,0,35.5,FINESTEERING,2315,478888.300,02001000,cdba,17139;SOL_COMPUTED,NARROW_INT,17.60210512840,78.12657317205,526.6676,-76.2000,WGS84,0.0086,0.0093,0.0258,"0",2.300,0.000,49,48,48,46,00,21,3f,37*da6e8dc6
#BESTPOSA,FILE,0,35.5,FINESTEERING,2315,478888.400,02001000,cdba,17139;SOL_COMPUTED,NARROW_INT,17.60210874432,78.12657306150,526.6765,-76.2000,WGS84,0.0082,0.0089,0.0247,"0",1.400,0.000,49,49,49,47,00,21,3f,37*d30754c1
#BESTPOSA,FILE,0,35.5,FINESTEERING,2315,478888.500,02001000,cdba,17139;SOL_COMPUTED,NARROW_INT,17.60211237402,78.12657298062,526.6798,-76.2000,WGS84,0.0082,0.0089,0.0248,"0",1.500,0.000,49,49,49,47,00,21,3f,37*9d20b025
#BESTPOSA,FILE,0,35.5,FINESTEERING,2315,478888.600,02001000,cdba,17139;SOL_COMPUTED,NARROW_INT,17.60211601084,78.12657291518,526.6796,-76.2000,WGS84,0.0083,0.0089,0.0248,"0",1.600,0.000,49,49,49,47,00,21,3f,37*e75f196a
#BESTPOSA,FILE,0,35.5,FINESTEERING,2315,478888.700,02001000,cdba,17139;SOL_COMPUTED,NARROW_INT,17.60211963526,78.12657284739,526.6819,-76.2000,WGS84,0.0083,0.0090,0.0249,"0",1.700,0.000,49,49,49,47,00,21,3f,37*c49e4671
#BESTPOSA,FILE,0,35.5,FINESTEERING,2315,478888.800,02001000,cdba,17139;SOL_COMPUTED,NARROW_INT,17.60212328148,78.12657277873,526.6862,-76.2000,WGS84,0.0083,0.0090,0.0250,"0",1.800,0.000,49,49,49,47,00,21,3f,37*34b323d1
#BESTPOSA,FILE,0,35.5,FINESTEERING,2315,478888.900,02001000,cdba,17139;SOL_COMPUTED,NARROW_INT,17.60212694348,78.12657267846,526.6911,-76.2000,WGS84,0.0084,0.0091,0.0250,"0",1.900,0.000,49,49,49,47,00,21,3f,37*f6405e8c
#BESTPOSA,FILE,0,35.5,FINESTEERING,2315,478889.000,02001000,cdba,17139;SOL_COMPUTED,NARROW_INT,17.60213061080,78.12657260002,526.6960,-76.2000,WGS84,0.0084,0.0091,0.0251,"0",2.000,0.000,50,49,49,47,00,21,3f,37*ad73ad0f
#BESTPOSA,FILE,0,35.5,FINESTEERING,2315,478889.100,02001000,cdba,17139;SOL_COMPUTED,NARROW_INT,17.60213426770,78.12657252880,526.7010,-76.2000,WGS84,0.0085,0.0092,0.0253,"0",2.100,0.000,49,49,49,47,00,21,3f,37*7bccd74a
#BESTPOSA,FILE,0,35.5,FINESTEERING,2315,478889.200,02001000,cdba,17139;SOL_COMPUTED,NARROW_INT,17.60213790463,78.12657246125,526.7052,-76.2000,WGS84,0.0086,0.0092,0.0254,"0",2.200,0.000,49,49,49,47,00,21,3f,37*b96b6122
#BESTPOSA,FILE,0,35.5,FINESTEERING,2315,478889.300,02001000,cdba,17139;SOL_COMPUTED,NARROW_INT,17.60214155177,78.12657237340,526.7058,-76.2000,WGS84,0.0081,0.0088,0.0246,"0",1.300,0.000,49,49,49,47,00,21,3f,37*cfbf03ef
#BESTPOSA,FILE,0,35.5,FINESTEERING,2315,478889.400,02001000,cdba,17139;SOL_COMPUTED,NARROW_INT,17.60214522123,78.12657229039,526.7101,-76.2000,WGS84,0.0082,0.0089,0.0247,"0",1.400,0.000,49,49,49,47,00,21,3f,37*e3f5c537
#BESTPOSA,FILE,0,35.5,FINESTEERING,2315,478889.500,02001000,cdba,17139;SOL_COMPUTED,NARROW_INT,17.60214889184,78.12657220410,526.7131,-76.2000,WGS84,0.0082,0.0089,0.0247,"0",1.500,0.000,49,49,49,47,00,21,3f,37*94578396
#BESTPOSA,FILE,0,35.5,FINESTEERING,2315,478889.600,02001000,cdba,17139;SOL_COMPUTED,NARROW_INT,17.60215257343,78.12657212367,526.7172,-76.2000,WGS84,0.0082,0.0089,0.0248,"0",1.600,0.000,49,49,49,47,00,21,3f,37*6f1957a4
#BESTPOSA,FILE,0,35.5,FINESTEERING,2315,478889.700,02001000,cdba,17139;SOL_COMPUTED,NARROW_INT,17.60215625761,78.12657203792,526.7212,-76.2000,WGS84,0.0083,0.0090,0.0248,"0",1.700,0.000,49,49,49,47,00,21,3f,37*8dbc1516
#BESTPOSA,FILE,0,35.5,FINESTEERING,2315,478889.800,02001000,cdba,17139;SOL_COMPUTED,NARROW_INT,17.60215995197,78.12657196180,526.7246,-76.2000,WGS84,0.0083,0.0090,0.0249,"0",1.800,0.000,49,49,49,47,00,21,3f,37*db17074f
#BESTPOSA,FILE,0,35.5,FINESTEERING,2315,478889.900,02001000,cdba,17139;SOL_COMPUTED,NARROW_INT,17.60216364314,78.12657186945,526.7283,-76.2000,WGS84,0.0083,0.0090,0.0249,"0",1.900,0.000,49,49,49,47,00,21,3f,37*67ae9b60
#BESTPOSA,FILE,0,35.5,FINESTEERING,2315,478890.000,02001000,cdba,17139;SOL_COMPUTED,NARROW_INT,17.60216733156,78.12657178730,526.7329,-76.2000,WGS84,0.0084,0.0091,0.0250,"0",2.000,0.000,49,49,49,47,00,21,3f,37*4c8f1cfc
#BESTPOSA,FILE,0,35.5,FINESTEERING,2315,478890.100,02001000,cdba,17139;SOL_COMPUTED,NARROW_INT,17.60217101860,78.12657170865,526.7351,-76.2000,WGS84,0.0085,0.0092,0.0252,"0",2.100,0.000,49,49,49,47,00,21,3f,37*cd5ca0e0
#BESTPOSA,FILE,0,35.5,FINESTEERING,2315,478890.200,02001000,cdba,17139;SOL_COMPUTED,NARROW_INT,17.60217469908,78.12657162000,526.7397,-76.2000,WGS84,0.0085,0.0092,0.0252,"0",2.200,0.000,49,49,49,47,00,21,3f,37*69ce6514
#BESTPOSA,FILE,0,35.5,FINESTEERING,2315,478890.300,02001000,cdba,17139;SOL_COMPUTED,NARROW_INT,17.60217838631,78.12657153072,526.7425,-76.2000,WGS84,0.0085,0.0092,0.0253,"0",2.300,0.000,49,49,49,47,00,21,3f,37*9d9e21cf
#BESTPOSA,FILE,0,35.5,FINESTEERING,2315,478890.400,02001000,cdba,17139;SOL_COMPUTED,NARROW_INT,17.60218206683,78.12657142651,526.7456,-76.2000,WGS84,0.0086,0.0093,0.0254,"0",2.400,0.000,49,49,49,47,00,21,3f,37*0fba4db6
#BESTPOSA,FILE,0,35.5,FINESTEERING,2315,478890.500,02001000,cdba,17139;SOL_COMPUTED,NARROW_INT,17.60218578037,78.12657130212,526.7488,-76.2000,WGS84,0.0086,0.0093,0.0254,"0",2.500,0.000,49,49,49,47,00,21,3f,37*fce7a1c5
#BESTPOSA,FILE,0,35.5,FINESTEERING,2315,478890.600,02001000,cdba,17139;SOL_COMPUTED,NARROW_INT,17.60218948426,78.12657121449,526.7527,-76.2000,WGS84,0.0086,0.0093,0.0255,"0",2.600,0.000,49,49,49,47,00,21,3f,37*f7ab4a4b
#BESTPOSA,FILE,0,35.5,FINESTEERING,2315,478890.700,02001000,cdba,17139;SOL_COMPUTED,NARROW_INT,17.60219317318,78.12657112342,526.7551,-76.2000,WGS84,0.0087,0.0094,0.0255,"0",2.700,0.000,49,49,49,47,00,21,3f,37*5f14bf87
#BESTPOSA,FILE,0,35.5,FINESTEERING,2315,478890.800,02001000,cdba,17139;SOL_COMPUTED,NARROW_INT,17.60219687456,78.12657101909,526.7605,-76.2000,WGS84,0.0087,0.0094,0.0256,"0",2.800,0.000,49,49,49,47,00,21,3f,37*a1c8e3da
#BESTPOSA,FILE,0,35.5,FINESTEERING,2315,478890.900,02001000,cdba,17139;SOL_COMPUTED,NARROW_INT,17.60220059072,78.12657091228,526.7661,-76.2000,WGS84,0.0087,0.0094,0.0256,"0",2.900,0.000,49,49,49,47,00,21,3f,37*60835c8b
#BESTPOSA,FILE,0,35.5,FINESTEERING,2315,478891.000,02001000,cdba,17139;SOL_COMPUTED,NARROW_INT,17.60220429428,78.12657079709,526.7728,-76.2000,WGS84,0.0087,0.0094,0.0257,"0",3.000,0.000,49,49,49,47,00,21,3f,37*a7d9f651
#BESTPOSA,FILE,0,35.5,FINESTEERING,2315,478891.100,02001000,cdba,17139;SOL_COMPUTED,NARROW_INT,17.60220799526,78.12657067497,526.7751,-76.2000,WGS84,0.0088,0.0095,0.0259,"0",3.100,0.000,49,48,48,46,00,21,3f,37*627dc61a
#BESTPOSA,FILE,0,37.0,FINESTEERING,2315,478891.200,02001000,cdba,17139;SOL_COMPUTED,NARROW_INT,17.60221168263,78.12657057276,526.7765,-76.2000,WGS84,0.0089,0.0096,0.0259,"0",3.200,0.000,48,48,48,46,00,21,3f,37*7c68d575
#BESTPOSA,FILE,0,37.0,FINESTEERING,2315,478891.300,02001000,cdba,17139;SOL_COMPUTED,NARROW_INT,17.60221535071,78.12657048655,526.7692,-76.2000,WGS84,0.0085,0.0092,0.0254,"0",2.300,0.000,48,48,48,46,00,21,3f,37*a065bac4
#BESTPOSA,FILE,0,37.0,FINESTEERING,2315,478891.400,02001000,cdba,17139;SOL_COMPUTED,NARROW_INT,17.60221904174,78.12657036707,526.7721,-76.2000,WGS84,0.0085,0.0093,0.0254,"0",2.400,0.000,48,48,48,46,00,21,3f,37*2343fe63
#BESTPOSA,FILE,0,37.0,FINESTEERING,2315,478891.500,02001000,cdba,17139;SOL_COMPUTED,NARROW_INT,17.60222272155,78.12657026179,526.7785,-76.2000,WGS84,0.0086,0.0093,0.0255,"0",2.500,0.000,48,48,48,46,00,21,3f,37*b28a26c9
#BESTPOSA,FILE,0,37.0,FINESTEERING,2315,478891.600,02001000,cdba,17139;SOL_COMPUTED,NARROW_INT,17.60222639819,78.12657014045,526.7831,-76.2000,WGS84,0.0086,0.0093,0.0255,"0",2.600,0.000,48,48,48,46,00,21,3f,37*168832d4
#BESTPOSA,FILE,0,37.0,FINESTEERING,2315,478891.700,02001000,cdba,17139;SOL_COMPUTED,NARROW_INT,17.60223006072,78.12657001805,526.7850,-76.2000,WGS84,0.0086,0.0094,0.0256,"0",2.700,0.000,48,48,48,46,00,21,3f,37*1f2843b2
#BESTPOSA,FILE,0,37.0,FINESTEERING,2315,478891.800,02001000,cdba,17139;SOL_COMPUTED,NARROW_INT,17.60223372440,78.12656989544,526.7889,-76.2000,WGS84,0.0086,0.0094,0.0257,"0",2.800,0.000,48,48,48,46,00,21,3f,37*5dfc5526
#BESTPOSA,FILE,0,37.0,FINESTEERING,2315,478891.900,02001000,cdba,17139;SOL_COMPUTED,NARROW_INT,17.60223738235,78.12656978684,526.7929,-76.2000,WGS84,0.0087,0.0094,0.0257,"0",2.900,0.000,49,48,48,46,00,21,3f,37*37537778
#BESTPOSA,FILE,0,37.0,FINESTEERING,2315,478892.000,02001000,cdba,17139;SOL_COMPUTED,NARROW_INT,17.60224103880,78.12656967131,526.7957,-76.2000,WGS84,0.0087,0.0094,0.0258,"0",3.000,0.000,49,48,48,46,00,21,3f,37*55ca1f46
#BESTPOSA,FILE,0,36.5,FINESTEERING,2315,478892.100,02001000,cdba,17139;SOL_COMPUTED,NARROW_INT,17.60224468814,78.12656956218,526.8005,-76.2000,WGS84,0.0088,0.0095,0.0259,"0",3.100,0.000,49,49,49,46,00,21,3f,37*1e47e1c5
#BESTPOSA,FILE,0,36.5,FINESTEERING,2315,478892.200,02001000,cdba,17139;SOL_COMPUTED,NARROW_INT,17.60224833463,78.12656943462,526.8038,-76.2000,WGS84,0.0088,0.0096,0.0260,"0",3.200,0.000,49,49,49,47,00,21,3f,37*a8992bac
#BESTPOSA,FILE,0,36.5,FINESTEERING,2315,478892.300,02001000,cdba,17139;SOL_COMPUTED,NARROW_INT,17.60225196223,78.12656933769,526.8065,-76.2000,WGS84,0.0089,0.0096,0.0260,"0",3.300,0.000,49,49,49,47,00,21,3f,37*fb1f5664
#BESTPOSA,FILE,0,36.5,FINESTEERING,2315,478892.400,02001000,cdba,17139;SOL_COMPUTED,NARROW_INT,17.60225556758,78.12656921543,526.8116,-76.2000,WGS84,0.0089,0.0096,0.0261,"0",3.400,0.000,49,49,49,47,00,21,3f,37*37a36844
#BESTPOSA,FILE,0,36.5,FINESTEERING,2315,478892.500,02001000,cdba,17139;SOL_COMPUTED,NARROW_INT,17.60225919218,78.12656910306,526.8153,-76.2000,WGS84,0.0089,0.0097,0.0261,"0",3.500,0.000,49,49,49,47,00,21,3f,37*2ce5d936
#BESTPOSA,FILE,0,36.5,FINESTEERING,2315,478892.600,02001000,cdba,17139;SOL_COMPUTED,NARROW_INT,17.60226281431,78.12656898562,526.8167,-76.2000,WGS84,0.0089,0.0097,0.0262,"0",3.600,0.000,49,49,49,47,00,21,3f,37*714fe7a7
#BESTPOSA,FILE,0,36.5,FINESTEERING,2315,478892.700,02001000,cdba,17139;SOL_COMPUTED,NARROW_INT,17.60226647287,78.12656886196,526.8195,-76.2000,WGS84,0.0090,0.0097,0.0262,"0",3.700,0.000,49,49,49,47,00,21,3f,37*5d009c6f
#BESTPOSA,FILE,0,36.5,FINESTEERING,2315,478892.800,02001000,cdba,17139;SOL_COMPUTED,NARROW_INT,17.60227014039,78.12656872565,526.8219,-76.2000,WGS84,0.0090,0.0097,0.0263,"0",3.800,0.000,49,49,49,47,00,21,3f,37*4a143f21
