#BESTPOSA,FILE,0,32.0,FINESTEERING,2315,479973.700,02040000,cdba,17139;SOL_COMPUTED,INS_PSRSP,17.60142865669,78.12658894323,525.0722,-76.2000,WGS84,1.5190,1.1830,1.7629,"",0.000,0.000,49,29,29,29,00,06,39,33*ee04de94
#BESTPOSA,FILE,0,32.0,FINESTEERING,2315,479973.800,02040000,cdba,17139;SOL_COMPUTED,INS_PSRSP,17.60142865405,78.12658894153,525.0710,-76.2000,WGS84,1.5190,1.1830,1.7629,"",0.000,0.000,49,29,29,29,00,06,39,33*c0641d18
#BESTPOSA,FILE,0,32.0,FINESTEERING,2315,479973.900,02040000,cdba,17139;SOL_COMPUTED,INS_PSRSP,17.60142865166,78.12658893994,525.0698,-76.2000,WGS84,1.5190,1.1830,1.7629,"",0.000,0.000,49,29,29,29,00,06,39,33*e89a0570
#BESTPOSA,FILE,0,32.0,FINESTEERING,2315,479974.000,02040000,cdba,17139;SOL_COMPUTED,INS_PSRSP,17.60142864940,78.12658893842,525.0687,-76.2000,WGS84,1.5190,1.1830,1.7629,"",0.000,0.000,49,29,29,29,00,06,39,33*7016c526
#BESTPOSA,FILE,0,28.5,FINESTEERING,2315,479974.100,02040000,cdba,17139;SOL_COMPUTED,INS_PSRSP,17.60142864693,78.12658893680,525.0674,-76.2000,WGS84,1.5191,1.1826,1.7629,"",0.000,0.000,49,29,29,29,00,06,39,33*0b920041
#BESTPOSA,FILE,0,28.5,FINESTEERING,2315,479974.200,02040000,cdba,17139;SOL_COMPUTED,INS_PSRSP,17.60142864418,78.12658893517,525.0663,-76.2000,WGS84,1.5191,1.1826,1.7629,"",0.000,0.000,49,29,29,29,00,06,39,33*3d7ec28c
#BESTPOSA,FILE,0,28.5,FINESTEERING,2315,479974.300,02040000,cdba,17139;SOL_COMPUTED,INS_PSRSP,17.60142864134,78.12658893397,525.0652,-76.2000,WGS84,1.5191,1.1826,1.7629,"",0.000,0.000,49,29,29,29,00,06,39,33*4c6e1b8b
#BESTPOSA,FILE,0,28.5,FINESTEERING,2315,479974.400,02040000,cdba,17139;SOL_COMPUTED,INS_PSRSP,17.60142863877,78.12658893282,525.0640,-76.2000,WGS84,1.5191,1.1826,1.7629,"",0.000,0.000,49,29,29,29,00,06,39,33*6e60465f
#BESTPOSA,FILE,0,28.5,FINESTEERING,2315,479974.500,02040000,cdba,17139;SOL_COMPUTED,INS_PSRSP,17.60142863602,78.12658893119,525.0630,-76.2000,WGS84,1.5191,1.1826,1.7629,"",0.000,0.000,49,29,29,29,00,06,39,33*8d6163c4
#BESTPOSA,FILE,0,28.5,FINESTEERING,2315,479974.600,02040000,cdba,17139;SOL_COMPUTED,INS_PSRSP,17.60142863316,78.12658893024,525.0617,-76.2000,WGS84,1.5191,1.1826,1.7629,"",0.000,0.000,49,29,29,29,00,06,39,33*15a9b55e
#BESTPOSA,FILE,0,28.5,FINESTEERING,2315,479974.700,02040000,cdba,17139;SOL_COMPUTED,INS_PSRSP,17.60142862975,78.12658892836,525.0606,-76.2000,WGS84,1.5191,1.1826,1.7629,"",0.000,0.000,49,29,29,29,00,06,39,33*0b0e0a94
#BESTPOSA,FILE,0,28.5,FINESTEERING,2315,479974.800,02040000,cdba,17139;SOL_COMPUTED,INS_PSRSP,17.60142862702,78.12658892705,525.0596,-76.2000,WGS84,1.5191,1.1826,1.7629,"",0.000,0.000,49,29,29,29,00,06,39,33*d6dceea9
#BESTPOSA,FILE,0,28.5,FINESTEERING,2315,479974.900,02040000,cdba,17139;SOL_COMPUTED,INS_PSRSP,17.60142862445,78.12658892501,525.0584,-76.2000,WGS84,1.5191,1.1826,1.7629,"",0.000,0.000,49,29,29,29,00,06,39,33*584753f8
#BESTPOSA,FILE,0,28.5,FINESTEERING,2315,479975.000,02040000,cdba,17139;SOL_COMPUTED,INS_PSRSP,17.60142862136,78.12658892340,525.0572,-76.2000,WGS84,1.5191,1.1826,1.7629,"",0.000,0.000,49,29,29,29,00,06,39,33*f77a75e4
#BESTPOSA,FILE,0,28.5,FINESTEERING,2315,479975.100,02040000,cdba,17139;SOL_COMPUTED,INS_PSRSP,17.60142861819,78.12658892160,525.0562,-76.2000,WGS84,1.5193,1.1831,1.7622,"",0.000,0.000,49,29,29,29,00,06,39,33*47b985e7
#BESTPOSA,FILE,0,30.0,FINESTEERING,2315,479975.200,02040000,cdba,17139;SOL_COMPUTED,INS_PSRSP,17.60142861581,78.12658891933,525.0550,-76.2000,WGS84,1.5193,1.1831,1.7622,"",0.000,0.000,49,29,29,29,00,06,39,33*5da49e7a
#BESTPOSA,FILE,0,30.0,FINESTEERING,2315,479975.300,02040000,cdba,17139;SOL_COMPUTED,INS_PSRSP,17.60142862653,78.12658891653,525.0533,-76.2000,WGS84,1.5193,1.1831,1.7622,"",0.000,0.000,49,29,29,29,00,06,39,33*e850a1de
#BESTPOSA,FILE,0,30.0,FINESTEERING,2315,479975.400,02040000,cdba,17139;SOL_COMPUTED,INS_PSRSP,17.60142869116,78.12658891140,525.0491,-76.2000,WGS84,1.5193,1.1831,1.7622,"",0.000,0.000,49,29,29,29,00,06,39,33*409ab491
#BESTPOSA,FILE,0,30.0,FINESTEERING,2315,479975.500,02040000,cdba,17139;SOL_COMPUTED,INS_PSRSP,17.60142882690,78.12658890433,525.0439,-76.2000,WGS84,1.5193,1.1831,1.7622,"",0.000,0.000,49,29,29,29,00,06,39,33*4858da9d
#BESTPOSA,FILE,0,30.0,FINESTEERING,2315,479975.600,02040000,cdba,17139;SOL_COMPUTED,INS_PSRSP,17.60142903659,78.12658889449,525.0405,-76.2000,WGS84,1.5193,1.1831,1.7622,"",0.000,0.000,49,29,29,29,00,06,39,33*2d46d6ca
#BESTPOSA,FILE,0,30.0,FINESTEERING,2315,479975.700,02040000,cdba,17139;SOL_COMPUTED,INS_PSRSP,17.60142932012,78.12658888247,525.0402,-76.2000,WGS84,1.5193,1.1831,1.7622,"",0.000,0.000,49,29,29,29,00,06,39,33*7494609d
#BESTPOSA,FILE,0,30.0,FINESTEERING,2315,479975.800,02040000,cdba,17139;SOL_COMPUTED,INS_PSRSP,17.60142967874,78.12658886625,525.0407,-76.2000,WGS84,1.5193,1.1831,1.7622,"",0.000,0.000,49,29,29,29,00,06,39,33*14f5b212
#BESTPOSA,FILE,0,30.0,FINESTEERING,2315,479975.900,02040000,cdba,17139;SOL_COMPUTED,INS_PSRSP,17.60143011641,78.12658884822,525.0409,-76.2000,WGS84,1.5193,1.1831,1.7622,"",0.000,0.000,49,29,29,29,00,06,39,33*1a70bb3f
#BESTPOSA,FILE,0,30.0,FINESTEERING,2315,479976.000,02040000,cdba,17139;SOL_COMPUTED,INS_PSRSP,17.60143063429,78.12658882651,525.0401,-76.2000,WGS84,1.5193,1.1831,1.7622,"",0.000,0.000,49,29,29,29,00,06,39,33*b627d431
#BESTPOSA,FILE,0,30.0,FINESTEERING,2315,479976.100,02040000,cdba,17139;SOL_COMPUTED,INS_PSRSP,17.60143123361,78.12658880206,525.0387,-76.2000,WGS84,1.5195,1.1841,1.7611,"",0.000,0.000,49,29,29,29,00,06,39,33*521f5dd2
#BESTPOSA,FILE,0,31.5,FINESTEERING,2315,479976.200,02040000,cdba,17139;SOL_COMPUTED,INS_PSRSP,17.60143191498,78.12658877618,525.0379,-76.2000,WGS84,1.5195,1.1841,1.7611,"",0.000,0.000,49,29,29,29,00,06,39,33*03e596b0
#BESTPOSA,FILE,0,31.5,FINESTEERING,2315,479976.300,02040000,cdba,17139;SOL_COMPUTED,INS_PSRSP,17.60143268047,78.12658875075,525.0379,-76.2000,WGS84,1.5195,1.1841,1.7611,"",0.000,0.000,49,29,29,29,00,06,39,33*7becd9ec
#BESTPOSA,FILE,0,31.5,FINESTEERING,2315,479976.400,02040000,cdba,17139;SOL_COMPUTED,INS_PSRSP,17.60143353541,78.12658872106,525.0376,-76.2000,WGS84,1.5195,1.1841,1.7611,"",0.000,0.000,49,29,29,29,00,06,39,33*c65a962e
#BESTPOSA,FILE,0,31.5,FINESTEERING,2315,479976.500,02040000,cdba,17139;SOL_COMPUTED,INS_PSRSP,17.60143448188,78.12658868649,525.0367,-76.2000,WGS84,1.5195,1.1841,1.7611,"",0.000,0.000,49,29,29,29,00,06,39,33*e99fb400
#BESTPOSA,FILE,0,31.5,FINESTEERING,2315,479976.600,02040000,cdba,17139;SOL_COMPUTED,INS_PSRSP,17.60143552442,78.12658865080,525.0353,-76.2000,WGS84,1.5195,1.1841,1.7611,"",0.000,0.000,49,29,29,29,00,06,39,33*512c7001
#BESTPOSA,FILE,0,31.5,FINESTEERING,2315,479976.700,02040000,cdba,17139;SOL_COMPUTED,INS_PSRSP,17.60143666677,78.12658861189,525.0349,-76.2000,WGS84,1.5195,1.1841,1.7611,"",0.000,0.000,49,29,29,29,00,06,39,33*6b5f384e
#BESTPOSA,FILE,0,31.5,FINESTEERING,2315,479976.800,02040000,cdba,17139;SOL_COMPUTED,INS_PSRSP,17.60143791724,78.12658856174,525.0351,-76.2000,WGS84,1.5195,1.1841,1.7611,"",0.000,0.000,49,29,29,29,00,06,39,33*3310d869
#BESTPOSA,FILE,0,31.5,FINESTEERING,2315,479976.900,02040000,cdba,17139;SOL_COMPUTED,INS_PSRSP,17.60143929568,78.12658851215,525.0350,-76.2000,WGS84,1.5195,1.1841,1.7611,"",0.000,0.000,49,29,29,29,00,06,39,33*c54a8a17
#BESTPOSA,FILE,0,31.5,FINESTEERING,2315,479977.000,02040000,cdba,17139;SOL_COMPUTED,INS_PSRSP,17.60144078916,78.12658845469,525.0352,-76.2000,WGS84,1.5195,1.1841,1.7611,"",0.000,0.000,49,29,29,29,00,06,39,33*026f8329
#BESTPOSA,FILE,0,31.5,FINESTEERING,2315,479977.100,02040000,cdba,17139;SOL_COMPUTED,INS_PSRSP,17.60144235230,78.12658839387,525.0387,-76.2000,WGS84,1.5206,1.1879,1.7575,"",0.000,0.000,49,29,29,29,00,06,39,33*1adee7ca
#BESTPOSA,FILE,0,31.5,FINESTEERING,2315,479977.200,02040000,cdba,17139;SOL_COMPUTED,INS_PSRSP,17.60144398174,78.12658833652,525.0434,-76.2000,WGS84,1.5206,1.1879,1.7575,"",0.000,0.000,49,29,29,29,00,06,39,33*3961a4f2
#BESTPOSA,FILE,0,31.5,FINESTEERING,2315,479977.300,02040000,cdba,17139;SOL_COMPUTED,INS_PSRSP,17.60144571051,78.12658827915,525.0441,-76.2000,WGS84,1.5206,1.1879,1.7575,"",0.000,0.000,49,29,29,29,00,06,39,33*c70a4fe8
#BESTPOSA,FILE,0,31.5,FINESTEERING,2315,479977.400,02040000,cdba,17139;SOL_COMPUTED,INS_PSRSP,17.60144752454,78.12658822642,525.0414,-76.2000,WGS84,1.5206,1.1879,1.7575,"",0.000,0.000,49,29,29,29,00,06,39,33*e48d87fe
#BESTPOSA,FILE,0,31.5,FINESTEERING,2315,479977.500,02040000,cdba,17139;SOL_COMPUTED,INS_PSRSP,17.60144939812,78.12658814969,525.0400,-76.2000,WGS84,1.5206,1.1879,1.7575,"",0.000,0.000,49,29,29,29,00,06,39,33*0f89e9b4
#BESTPOSA,FILE,0,31.5,FINESTEERING,2315,479977.600,02040000,cdba,17139;SOL_COMPUTED,INS_PSRSP,17.60145130532,78.12658804480,525.0420,-76.2000,WGS84,1.5206,1.1879,1.7575,"",0.000,0.000,49,29,29,29,00,06,39,33*6973cbf2
#BESTPOSA,FILE,0,31.5,FINESTEERING,2315,479977.700,02040000,cdba,17139;SOL_COMPUTED,INS_PSRSP,17.60145324903,78.12658795967,525.0440,-76.2000,WGS84,1.5206,1.1879,1.7575,"",0.000,0.000,49,29,29,29,00,06,39,33*ce75657c
#BESTPOSA,FILE,0,31.5,FINESTEERING,2315,479977.800,02040000,cdba,17139;SOL_COMPUTED,INS_PSRSP,17.60145523629,78.12658788315,525.0442,-76.2000,WGS84,1.5206,1.1879,1.7575,"",0.000,0.000,49,29,29,29,00,06,39,33*f2a9adcc
#BESTPOSA,FILE,0,31.5,FINESTEERING,2315,479977.900,02040000,cdba,17139;SOL_COMPUTED,INS_PSRSP,17.60145727073,78.12658781457,525.0438,-76.2000,WGS84,1.5206,1.1879,1.7575,"",0.000,0.000,49,29,29,29,00,06,39,33*58be7f4c
#BESTPOSA,FILE,0,31.5,FINESTEERING,2315,479978.000,02040000,cdba,17139;SOL_COMPUTED,INS_PSRSP,17.60145933492,78.12658775029,525.0458,-76.2000,WGS84,1.5206,1.1879,1.7575,"",0.000,0.000,49,29,29,29,00,06,39,33*d29bd136
#BESTPOSA,FILE,0,29.5,FINESTEERING,2315,479978.100,02040000,cdba,17139;SOL_COMPUTED,INS_PSRSP,17.60146142143,78.12658767125,525.0492,-76.2000,WGS84,1.5224,1.1986,1.7498,"",0.000,0.000,48,28,28,28,00,06,39,33*f27f731f
#BESTPOSA,FILE,0,29.5,FINESTEERING,2315,479978.200,02040000,cdba,17139;SOL_COMPUTED,INS_PSRSP,17.60146352975,78.12658757977,525.0510,-76.2000,WGS84,1.5224,1.1986,1.7498,"",0.000,0.000,48,28,28,28,00,06,39,33*b5c80209
#BESTPOSA,FILE,0,29.5,FINESTEERING,2315,479978.300,02040000,cdba,17139;SOL_COMPUTED,INS_PSRSP,17.60146566497,78.12658748787,525.0504,-76.2000,WGS84,1.5224,1.1986,1.7498,"",0.000,0.000,48,28,28,28,00,06,39,33*bd21ac4d
#BESTPOSA,FILE,0,29.5,FINESTEERING,2315,479978.400,02040000,cdba,17139;SOL_COMPUTED,INS_PSRSP,17.60146784338,78.12658742737,525.0413,-76.2000,WGS84,1.5224,1.1986,1.7498,"",0.000,0.000,48,28,28,28,00,06,39,33*32ec913a
#BESTPOSA,FILE,0,29.5,FINESTEERING,2315,479978.500,02040000,cdba,17139;SOL_COMPUTED,INS_PSRSP,17.60147003715,78.12658733990,525.0337,-76.2000,WGS84,1.5224,1.1986,1.7498,"",0.000,0.000,48,28,28,28,00,06,39,33*5eb16c31
#BESTPOSA,FILE,0,29.5,FINESTEERING,2315,479978.600,02040000,cdba,17139;SOL_COMPUTED,INS_PSRSP,17.60147224487,78.12658724829,525.0304,-76.2000,WGS84,1.5224,1.1986,1.7498,"",0.000,0.000,48,28,28,28,00,06,39,33*6525fe63
#BESTPOSA,FILE,0,29.5,FINESTEERING,2315,479978.700,02040000,cdba,17139;SOL_COMPUTED,INS_PSRSP,17.60147446768,78.12658716220,525.0351,-76.2000,WGS84,1.5224,1.1986,1.7498,"",0.000,0.000,48,28,28,28,00,06,39,33*b3a01dae
#BESTPOSA,FILE,0,29.5,FINESTEERING,2315,479978.800,02040000,cdba,17139;SOL_COMPUTED,INS_PSRSP,17.60147671372,78.12658707214,525.0424,-76.2000,WGS84,1.5224,1.1986,1.7498,"",0.000,0.000,48,28,28,28,00,06,39,33*87908d8e
#BESTPOSA,FILE,0,29.5,FINESTEERING,2315,479978.900,02040000,cdba,17139;SOL_COMPUTED,INS_PSRSP,17.60147897382,78.12658698825,525.0484,-76.2000,WGS84,1.5224,1.1986,1.7498,"",0.000,0.000,48,28,28,28,00,06,39,33*8c7f0143
#BESTPOSA,FILE,0,29.5,FINESTEERING,2315,479979.000,02040000,cdba,17139;SOL_COMPUTED,INS_PSRSP,17.60148123565,78.12658691351,525.0517,-76.2000,WGS84,1.5224,1.1986,1.7498,"",0.000,0.000,48,28,28,28,00,06,39,33*7b946a87
#BESTPOSA,FILE,0,29.5,FINESTEERING,2315,479979.100,02040000,cdba,17139;SOL_COMPUTED,INS_PSRSP,17.60148349548,78.12658681913,525.0543,-76.2000,WGS84,1.5240,1.2140,1.7391,"",0.000,0.000,48,28,28,28,00,06,39,33*cd47ce1f
#BESTPOSA,FILE,0,30.5,FINESTEERING,2315,479979.200,02040000,cdba,17139;SOL_COMPUTED,INS_PSRSP,17.60148577103,78.12658672728,525.0550,-76.2000,WGS84,1.5240,1.2140,1.7391,"",0.000,0.000,48,28,28,28,00,06,39,33*9926dcb2
#BESTPOSA,FILE,0,30.5,FINESTEERING,2315,479979.300,02040000,cdba,17139;SOL_COMPUTED,INS_PSRSP,17.60148807184,78.12658664145,525.0544,-76.2000,WGS84,1.5240,1.2140,1.7391,"",0.000,0.000,48,28,28,28,00,06,39,33*2286f1b4
#BESTPOSA,FILE,0,30.5,FINESTEERING,2315,479979.400,02040000,cdba,17139;SOL_COMPUTED,INS_PSRSP,17.60149038782,78.12658656069,525.0555,-76.2000,WGS84,1.5240,1.2140,1.7391,"",0.000,0.000,48,28,28,28,00,06,39,33*26300a4b
#BESTPOSA,FILE,0,30.5,FINESTEERING,2315,479979.500,02040000,cdba,17139;SOL_COMPUTED,INS_PSRSP,17.60149270895,78.12658648166,525.0585,-76.2000,WGS84,1.5240,1.2140,1.7391,"",0.000,0.000,48,28,28,28,00,06,39,33*5d31f565
#BESTPOSA,FILE,0,30.5,FINESTEERING,2315,479979.600,02040000,cdba,17139;SOL_COMPUTED,INS_PSRSP,17.60149504097,78.12658640323,525.0608,-76.2000,WGS84,1.5240,1.2140,1.7391,"",0.000,0.000,48,28,28,28,00,06,39,33*e9168d62
#BESTPOSA,FILE,0,30.5,FINESTEERING,2315,479979.700,02040000,cdba,17139;SOL_COMPUTED,INS_PSRSP,17.60149740738,78.12658631867,525.0599,-76.2000,WGS84,1.5240,1.2140,1.7391,"",0.000,0.000,48,28,28,28,00,06,39,33*d9e27e23
#BESTPOSA,FILE,0,30.5,FINESTEERING,2315,479979.800,02040000,cdba,17139;SOL_COMPUTED,INS_PSRSP,17.60149982738,78.12658622942,525.0575,-76.2000,WGS84,1.5240,1.2140,1.7391,"",0.000,0.000,48,28,28,28,00,06,39,33*93ab533e
#BESTPOSA,FILE,0,30.5,FINESTEERING,2315,479979.900,02040000,cdba,17139;SOL_COMPUTED,INS_PSRSP,17.60150230650,78.12658613716,525.0564,-76.2000,WGS84,1.5240,1.2140,1.7391,"",0.000,0.000,48,28,28,28,00,06,39,33*e117b001
#BESTPOSA,FILE,0,30.5,FINESTEERING,2315,479980.000,02040000,cdba,17139;SOL_COMPUTED,INS_PSRSP,17.60150483458,78.12658604561,525.0580,-76.2000,WGS84,1.5240,1.2140,1.7391,"",0.000,0.000,48,28,28,28,00,06,39,33*1aeefb6b
#BESTPOSA,FILE,0,28.5,FINESTEERING,2315,479980.100,02040000,cdba,17139;SOL_COMPUTED,INS_PSRSP,17.60150740332,78.12658595653,525.0606,-76.2000,WGS84,1.5267,1.2345,1.7236,"",0.000,0.000,48,28,28,28,00,06,39,33*c95cd4bc
#BESTPOSA,FILE,0,28.5,FINESTEERING,2315,479980.200,02040000,cdba,17139;SOL_COMPUTED,INS_PSRSP,17.60151002265,78.12658586602,525.0625,-76.2000,WGS84,1.5267,1.2345,1.7236,"",0.000,0.000,48,28,28,28,00,06,39,33*f6906102
#BESTPOSA,FILE,0,28.5,FINESTEERING,2315,479980.300,02040000,cdba,17139;SOL_COMPUTED,INS_PSRSP,17.60151270566,78.12658578316,525.0630,-76.2000,WGS84,1.5267,1.2345,1.7236,"",0.000,0.000,48,28,28,28,00,06,39,33*3d033c4b
#BESTPOSA,FILE,0,28.5,FINESTEERING,2315,479980.400,02040000,cdba,17139;SOL_COMPUTED,INS_PSRSP,17.60151545388,78.12658569671,525.0634,-76.2000,WGS84,1.5267,1.2345,1.7236,"",0.000,0.000,48,28,28,28,00,06,39,33*b8616ea3
#BESTPOSA,FILE,0,28.5,FINESTEERING,2315,479980.500,02040000,cdba,17139;SOL_COMPUTED,INS_PSRSP,17.60151826103,78.12658561464,525.0648,-76.2000,WGS84,1.5267,1.2345,1.7236,"",0.000,0.000,48,28,28,28,00,06,39,33*9e8e5a63
#BESTPOSA,FILE,0,28.5,FINESTEERING,2315,479980.600,02040000,cdba,17139;SOL_COMPUTED,INS_PSRSP,17.60152112389,78.12658552700,525.0662,-76.2000,WGS84,1.5267,1.2345,1.7236,"",0.000,0.000,48,28,28,28,00,06,39,33*387ea9df
#BESTPOSA,FILE,0,28.5,FINESTEERING,2315,479980.700,02040000,cdba,17139;SOL_COMPUTED,INS_PSRSP,17.60152404709,78.12658544164,525.0666,-76.2000,WGS84,1.5267,1.2345,1.7236,"",0.000,0.000,48,28,28,28,00,06,39,33*6a724696
#BESTPOSA,FILE,0,28.5,FINESTEERING,2315,479980.800,02040000,cdba,17139;SOL_COMPUTED,INS_PSRSP,17.60152703478,78.12658535579,525.0663,-76.2000,WGS84,1.5267,1.2345,1.7236,"",0.000,0.000,48,28,28,28,00,06,39,33*624762eb
#BESTPOSA,FILE,0,28.5,FINESTEERING,2315,479980.900,02040000,cdba,17139;SOL_COMPUTED,INS_PSRSP,17.60153007867,78.12658527128,525.0668,-76.2000,WGS84,1.5267,1.2345,1.7236,"",0.000,0.000,48,28,28,28,00,06,39,33*c7256893
#BESTPOSA,FILE,0,28.5,FINESTEERING,2315,479981.000,02040000,cdba,17139;SOL_COMPUTED,INS_PSRSP,17.60153317075,78.12658518982,525.0692,-76.2000,WGS84,1.5267,1.2345,1.7236,"",0.000,0.000,48,28,28,28,00,06,39,33*e27fd50a
#BESTPOSA,FILE,0,28.5,FINESTEERING,2315,479981.100,02040000,cdba,17139;SOL_COMPUTED,INS_PSRSP,17.60153630541,78.12658510841,525.0728,-76.2000,WGS84,1.5341,1.2623,1.6987,"",0.000,0.000,45,27,27,27,00,06,39,33*00e1e657
#BESTPOSA,FILE,0,30.0,FINESTEERING,2315,479981.200,02040000,cdba,17139;SOL_COMPUTED,INS_PSRSP,17.60153947343,78.12658502546,525.0765,-76.2000,WGS84,1.5341,1.2623,1.6987,"",0.000,0.000,45,27,27,27,00,06,39,33*3e004e9d
#BESTPOSA,FILE,0,30.0,FINESTEERING,2315,479981.300,02040000,cdba,17139;SOL_COMPUTED,INS_PSRSP,17.60154265794,78.12658494971,525.0805,-76.2000,WGS84,1.5341,1.2623,1.6987,"",0.000,0.000,45,27,27,27,00,06,39,33*ca23c8a0
#BESTPOSA,FILE,0,30.0,FINESTEERING,2315,479981.400,02040000,cdba,17139;SOL_COMPUTED,INS_PSRSP,17.60154584162,78.12658487147,525.0851,-76.2000,WGS84,1.5341,1.2623,1.6987,"",0.000,0.000,45,27,27,27,00,06,39,33*f222e442
#BESTPOSA,FILE,0,30.0,FINESTEERING,2315,479981.500,02040000,cdba,17139;SOL_COMPUTED,INS_PSRSP,17.60154902089,78.12658480051,525.0887,-76.2000,WGS84,1.5341,1.2623,1.6987,"",0.000,0.000,45,27,27,27,00,06,39,33*ee6ec300
#BESTPOSA,FILE,0,30.0,FINESTEERING,2315,479981.600,02040000,cdba,17139;SOL_COMPUTED,INS_PSRSP,17.60155219866,78.12658472830,525.0918,-76.2000,WGS84,1.5341,1.2623,1.6987,"",0.000,0.000,45,27,27,27,00,06,39,33*a8cc07d9
#BESTPOSA,FILE,0,30.0,FINESTEERING,2315,479981.700,02040000,cdba,17139;SOL_COMPUTED,INS_PSRSP,17.60155537845,78.12658466043,525.0952,-76.2000,WGS84,1.5341,1.2623,1.6987,"",0.000,0.000,45,27,27,27,00,06,39,33*35206d3d
#BESTPOSA,FILE,0,30.0,FINESTEERING,2315,479981.800,02040000,cdba,17139;SOL_COMPUTED,INS_PSRSP,17.60155855338,78.12658459627,525.0984,-76.2000,WGS84,1.5341,1.2623,1.6987,"",0.000,0.000,45,27,27,27,00,06,39,33*e3fc1d26
#BESTPOSA,FILE,0,30.0,FINESTEERING,2315,479981.900,02040000,cdba,17139;SOL_COMPUTED,INS_PSRSP,17.60156171200,78.12658453592,525.1031,-76.2000,WGS84,1.5341,1.2623,1.6987,"",0.000,0.000,45,27,27,27,00,06,39,33*103e1561
#BESTPOSA,FILE,0,30.0,FINESTEERING,2315,479982.000,02040000,cdba,17139;SOL_COMPUTED,INS_PSRSP,17.60156485334,78.12658447947,525.1080,-76.2000,WGS84,1.5341,1.2623,1.6987,"",0.000,0.000,45,27,27,27,00,06,39,33*a3b81e03
#BESTPOSA,FILE,0,30.0,FINESTEERING,2315,479982.100,02040000,cdba,17139;SOL_COMPUTED,INS_PSRSP,17.60156797937,78.12658442716,525.1116,-76.2000,WGS84,1.5393,1.3045,1.6641,"",0.000,0.000,45,27,27,27,00,06,39,33*f8b4bd5e
#BESTPOSA,FILE,0,33.0,FINESTEERING,2315,479982.200,02040000,cdba,17139;SOL_COMPUTED,INS_PSRSP,17.60157108590,78.12658437737,525.1142,-76.2000,WGS84,1.5393,1.3045,1.6641,"",0.000,0.000,45,27,27,27,00,06,39,33*ef02725f
#BESTPOSA,FILE,0,33.0,FINESTEERING,2315,479982.300,02040000,cdba,17139;SOL_COMPUTED,INS_PSRSP,17.60157415115,78.12658432853,525.1185,-76.2000,WGS84,1.5393,1.3045,1.6641,"",0.000,0.000,45,27,27,27,00,06,39,33*853bac77
#BESTPOSA,FILE,0,33.0,FINESTEERING,2315,479982.400,02040000,cdba,17139;SOL_COMPUTED,INS_PSRSP,17.60157716954,78.12658428794,525.1228,-76.2000,WGS84,1.5393,1.3045,1.6641,"",0.000,0.000,45,27,27,27,00,06,39,33*810c1c95
#BESTPOSA,FILE,0,33.0,FINESTEERING,2315,479982.500,02040000,cdba,17139;SOL_COMPUTED,INS_PSRSP,17.60158016017,78.12658424344,525.1255,-76.2000,WGS84,1.5393,1.3045,1.6641,"",0.000,0.000,45,27,27,27,00,06,39,33*2129c23d
#BESTPOSA,FILE,0,33.0,FINESTEERING,2315,479982.600,02040000,cdba,17139;SOL_COMPUTED,INS_PSRSP,17.60158313484,78.12658420715,525.1271,-76.2000,WGS84,1.5393,1.3045,1.6641,"",0.000,0.000,45,27,27,27,00,06,39,33*83ddd61c
#BESTPOSA,FILE,0,33.0,FINESTEERING,2315,479982.700,02040000,cdba,17139;SOL_COMPUTED,INS_PSRSP,17.60158609561,78.12658416749,525.1289,-76.2000,WGS84,1.5393,1.3045,1.6641,"",0.000,0.000,45,27,27,27,00,06,39,33*8a3d8b33
#BESTPOSA,FILE,0,33.0,FINESTEERING,2315,479982.800,02040000,cdba,17139;SOL_COMPUTED,INS_PSRSP,17.60158904970,78.12658413140,525.1313,-76.2000,WGS84,1.5393,1.3045,1.6641,"",0.000,0.000,45,27,27,27,00,06,39,33*ad65bc4a
#BESTPOSA,FILE,0,33.0,FINESTEERING,2315,479982.900,02040000,cdba,17139;SOL_COMPUTED,INS_PSRSP,17.60159199588,78.12658410140,525.1344,-76.2000,WGS84,1.5393,1.3045,1.6641,"",0.000,0.000,45,27,27,27,00,06,39,33*44a89ec2
#BESTPOSA,FILE,0,33.0,FINESTEERING,2315,479983.000,02040000,cdba,17139;SOL_COMPUTED,INS_PSRSP,17.60159492767,78.12658406862,525.1377,-76.2000,WGS84,1.5393,1.3045,1.6641,"",0.000,0.000,45,27,27,27,00,06,39,33*d49c0506
#BESTPOSA,FILE,0,33.0,FINESTEERING,2315,479983.100,02040000,cdba,17139;SOL_COMPUTED,INS_PSRSP,17.60159784187,78.12658404145,525.1414,-76.2000,WGS84,1.5452,1.3542,1.6213,"",0.000,0.000,45,27,27,27,00,06,39,33*9ae413dd
#BESTPOSA,FILE,0,33.0,FINESTEERING,2315,479983.200,02040000,cdba,17139;SOL_COMPUTED,INS_PSRSP,17.60160074618,78.12658401465,525.1441,-76.2000,WGS84,1.5452,1.3542,1.6213,"",0.000,0.000,45,27,27,27,00,06,39,33*27db1577
#BESTPOSA,FILE,0,33.0,FINESTEERING,2315,479983.300,02040000,cdba,17139;SOL_COMPUTED,INS_PSRSP,17.60160366483,78.12658398498,525.1450,-76.2000,WGS84,1.5452,1.3542,1.6213,"",0.000,0.000,45,27,27,27,00,06,39,33*880f4ef8
#BESTPOSA,FILE,0,33.0,FINESTEERING,2315,479983.400,02040000,cdba,17139;SOL_COMPUTED,INS_PSRSP,17.60160661217,78.12658395705,525.1450,-76.2000,WGS84,1.5452,1.3542,1.6213,"",0.000,0.000,45,27,27,27,00,06,39,33*8b475bfa
#BESTPOSA,FILE,0,33.0,FINESTEERING,2315,479983.500,02040000,cdba,17139;SOL_COMPUTED,INS_PSRSP,17.60160957530,78.12658393245,525.1465,-76.2000,WGS84,1.5452,1.3542,1.6213,"",0.000,0.000,45,27,27,27,00,06,39,33*830f0c9f
#BESTPOSA,FILE,0,33.0,FINESTEERING,2315,479983.600,02040000,cdba,17139;SOL_COMPUTED,INS_PSRSP,17.60161253528,78.12658390905,525.1504,-76.2000,WGS84,1.5452,1.3542,1.6213,"",0.000,0.000,45,27,27,27,00,06,39,33*66ffa575
#BESTPOSA,FILE,0,33.0,FINESTEERING,2315,479983.700,02040000,cdba,17139;SOL_COMPUTED,INS_PSRSP,17.60161549062,78.12658388762,525.1546,-76.2000,WGS84,1.5452,1.3542,1.6213,"",0.000,0.000,45,27,27,27,00,06,39,33*220c4b4b
#BESTPOSA,FILE,0,33.0,FINESTEERING,2315,479983.800,02040000,cdba,17139;SOL_COMPUTED,INS_PSRSP,17.60161846023,78.12658387080,525.1566,-76.2000,WGS84,1.5452,1.3542,1.6213,"",0.000,0.000,45,27,27,27,00,06,39,33*6edd37cd
#BESTPOSA,FILE,0,33.0,FINESTEERING,2315,479983.900,02040000,cdba,17139;SOL_COMPUTED,INS_PSRSP,17.60162145197,78.12658385298,525.1577,-76.2000,WGS84,1.5452,1.3542,1.6213,"",0.000,0.000,45,27,27,27,00,06,39,33*6023a732
#BESTPOSA,FILE,0,33.0,FINESTEERING,2315,479984.000,02040000,cdba,17139;SOL_COMPUTED,INS_PSRSP,17.60162445057,78.12658384111,525.1595,-76.2000,WGS84,1.5452,1.3542,1.6213,"",0.000,0.000,45,27,27,27,00,06,39,33*fe1a57f2
#BESTPOSA,FILE,0,32.0,FINESTEERING,2315,479984.100,02040000,cdba,17139;SOL_COMPUTED,INS_PSRSP,17.60162744225,78.12658382594,525.1617,-76.2000,WGS84,1.7555,1.5874,1.7861,"",0.000,0.000,44,26,26,26,00,06,39,33*8808b00b
#BESTPOSA,FILE,0,32.0,FINESTEERING,2315,479984.200,02040000,cdba,17139;SOL_COMPUTED,INS_PSRSP,17.60163043046,78.12658380681,525.1627,-76.2000,WGS84,1.7555,1.5874,1.7861,"",0.000,0.000,44,26,26,26,00,06,39,33*54737e7f
#BESTPOSA,FILE,0,32.0,FINESTEERING,2315,479984.300,02040000,cdba,17139;SOL_COMPUTED,INS_PSRSP,17.60163342894,78.12658379232,525.1624,-76.2000,WGS84,1.7555,1.5874,1.7861,"",0.000,0.000,44,26,26,26,00,06,39,33*2fb38d62
#BESTPOSA,FILE,0,32.0,FINESTEERING,2315,479984.400,02040000,cdba,17139;SOL_COMPUTED,INS_PSRSP,17.60163644570,78.12658378006,525.1619,-76.2000,WGS84,1.7555,1.5874,1.7861,"",0.000,0.000,44,26,26,26,00,06,39,33*2a739421
#BESTPOSA,FILE,0,32.0,FINESTEERING,2315,479984.500,02040000,cdba,17139;SOL_COMPUTED,INS_PSRSP,17.60163946888,78.12658377319,525.1633,-76.2000,WGS84,1.7555,1.5874,1.7861,"",0.000,0.000,44,26,26,26,00,06,39,33*b18222df
#BESTPOSA,FILE,0,32.0,FINESTEERING,2315,479984.600,02040000,cdba,17139;SOL_COMPUTED,INS_PSRSP,17.60164248979,78.12658376500,525.1658,-76.2000,WGS84,1.7555,1.5874,1.7861,"",0.000,0.000,44,26,26,26,00,06,39,33*f12e2148
#BESTPOSA,FILE,0,32.0,FINESTEERING,2315,479984.700,02040000,cdba,17139;SOL_COMPUTED,INS_PSRSP,17.60164551927,78.12658376515,525.1676,-76.2000,WGS84,1.7555,1.5874,1.7861,"",0.000,0.000,44,26,26,26,00,06,39,33*ddcc4a81
#BESTPOSA,FILE,0,32.0,FINESTEERING,2315,479984.800,02040000,cdba,17139;SOL_COMPUTED,INS_PSRSP,17.60164858942,78.12658376216,525.1679,-76.2000,WGS84,1.7555,1.5874,1.7861,"",0.000,0.000,44,26,26,26,00,06,39,33*c7514020
#BESTPOSA,FILE,0,32.0,FINESTEERING,2315,479984.900,02040000,cdba,17139;SOL_COMPUTED,INS_PSRSP,17.60165172365,78.12658376333,525.1671,-76.2000,WGS84,1.7555,1.5874,1.7861,"",0.000,0.000,44,26,26,26,00,06,39,33*1cb6b5d8
#BESTPOSA,FILE,0,32.0,FINESTEERING,2315,479985.000,02040000,cdba,17139;SOL_COMPUTED,INS_PSRSP,17.60165491182,78.12658376531,525.1681,-76.2000,WGS84,1.7555,1.5874,1.7861,"",0.000,0.000,44,26,26,26,00,06,39,33*e6728ff7
#BESTPOSA,FILE,0,32.0,FINESTEERING,2315,479985.100,02040000,cdba,17139;SOL_COMPUTED,INS_PSRSP,17.60165813338,78.12658376628,525.1714,-76.2000,WGS84,1.8537,1.7082,1.8077,"",0.000,0.000,44,26,26,26,00,06,39,33*155907cc
#BESTPOSA,FILE,0,32.0,FINESTEERING,2315,479985.200,02040000,cdba,17139;SOL_COMPUTED,INS_PSRSP,17.60166138902,78.12658376952,525.1751,-76.2000,WGS84,1.8537,1.7082,1.8077,"",0.000,0.000,44,26,26,26,00,06,39,33*d20ba717
#BESTPOSA,FILE,0,32.0,FINESTEERING,2315,479985.300,02040000,cdba,17139;SOL_COMPUTED,INS_PSRSP,17.60166470038,78.12658377203,525.1765,-76.2000,WGS84,1.8537,1.7082,1.8077,"",0.000,0.000,44,26,26,26,00,06,39,33*a1a6874d
#BESTPOSA,FILE,0,32.0,FINESTEERING,2315,479985.400,02040000,cdba,17139;SOL_COMPUTED,INS_PSRSP,17.60166807275,78.12658378823,525.1760,-76.2000,WGS84,1.8537,1.7082,1.8077,"",0.000,0.000,44,26,26,26,00,06,39,33*0066135a
#BESTPOSA,FILE,0,32.0,FINESTEERING,2315,479985.500,02040000,cdba,17139;SOL_COMPUTED,INS_PSRSP,17.60167148500,78.12658379961,525.1778,-76.2000,WGS84,1.8537,1.7082,1.8077,"",0.000,0.000,44,26,26,26,00,06,39,33*12c4247e
#BESTPOSA,FILE,0,32.0,FINESTEERING,2315,479985.600,02040000,cdba,17139;SOL_COMPUTED,INS_PSRSP,17.60167490160,78.12658381362,525.1834,-76.2000,WGS84,1.8537,1.7082,1.8077,"",0.000,0.000,44,26,26,26,00,06,39,33*c4dc32dc
#BESTPOSA,FILE,0,32.0,FINESTEERING,2315,479985.700,02040000,cdba,17139;SOL_COMPUTED,INS_PSRSP,17.60167830561,78.12658382886,525.1898,-76.2000,WGS84,1.8537,1.7082,1.8077,"",0.000,0.000,44,26,26,26,00,06,39,33*78097b0f
#BESTPOSA,FILE,0,32.0,FINESTEERING,2315,479985.800,02040000,cdba,17139;SOL_COMPUTED,INS_PSRSP,17.60168169826,78.12658384566,525.1936,-76.2000,WGS84,1.8537,1.7082,1.8077,"",0.000,0.000,44,26,26,26,00,06,39,33*1cc65e0e
#BESTPOSA,FILE,0,32.0,FINESTEERING,2315,479985.900,02040000,cdba,17139;SOL_COMPUTED,INS_PSRSP,17.60168507847,78.12658386590,525.1949,-76.2000,WGS84,1.8537,1.7082,1.8077,"",0.000,0.000,44,26,26,26,00,06,39,33*fe0e8dd4
#BESTPOSA,FILE,0,32.0,FINESTEERING,2315,479986.000,02040000,cdba,17139;SOL_COMPUTED,INS_PSRSP,17.60168843767,78.12658388491,525.1950,-76.2000,WGS84,1.8537,1.7082,1.8077,"",0.000,0.000,44,26,26,26,00,06,39,33*bffb8df9
#BESTPOSA,FILE,0,30.0,FINESTEERING,2315,479986.100,02040000,cdba,17139;SOL_COMPUTED,INS_PSRSP,17.60169177562,78.12658390517,525.1961,-76.2000,WGS84,1.9391,1.8354,1.8312,"",0.000,0.000,44,26,26,26,00,06,39,33*0e45111a
#BESTPOSA,FILE,0,30.0,FINESTEERING,2315,479986.200,02040000,cdba,17139;SOL_COMPUTED,INS_PSRSP,17.60169509984,78.12658392267,525.1964,-76.2000,WGS84,1.9391,1.8354,1.8312,"",0.000,0.000,44,26,26,26,00,06,39,33*445399c8
#BESTPOSA,FILE,0,30.0,FINESTEERING,2315,479986.300,02040000,cdba,17139;SOL_COMPUTED,INS_PSRSP,17.60169842213,78.12658394868,525.1955,-76.2000,WGS84,1.9391,1.8354,1.8312,"",0.000,0.000,44,26,26,26,00,06,39,33*21d9e18a
#BESTPOSA,FILE,0,30.0,FINESTEERING,2315,479986.400,02040000,cdba,17139;SOL_COMPUTED,INS_PSRSP,17.60170178143,78.12658397510,525.1930,-76.2000,WGS84,1.9391,1.8354,1.8312,"",0.000,0.000,44,26,26,26,00,06,39,33*1a87d2ac
#BESTPOSA,FILE,0,30.0,FINESTEERING,2315,479986.500,02040000,cdba,17139;SOL_COMPUTED,INS_PSRSP,17.60170518030,78.12658400922,525.1915,-76.2000,WGS84,1.9391,1.8354,1.8312,"",0.000,0.000,44,26,26,26,00,06,39,33*37224e62
#BESTPOSA,FILE,0,30.0,FINESTEERING,2315,479986.600,02040000,cdba,17139;SOL_COMPUTED,INS_PSRSP,17.60170858694,78.12658404201,525.1944,-76.2000,WGS84,1.9391,1.8354,1.8312,"",0.000,0.000,44,26,26,26,00,06,39,33*06108e56
#BESTPOSA,FILE,0,30.0,FINESTEERING,2315,479986.700,02040000,cdba,17139;SOL_COMPUTED,INS_PSRSP,17.60171198811,78.12658407478,525.1995,-76.2000,WGS84,1.9391,1.8354,1.8312,"",0.000,0.000,44,26,26,26,00,06,39,33*fcd5742f
#BESTPOSA,FILE,0,30.0,FINESTEERING,2315,479986.800,02040000,cdba,17139;SOL_COMPUTED,INS_PSRSP,17.60171540509,78.12658411417,525.2019,-76.2000,WGS84,1.9391,1.8354,1.8312,"",0.000,0.000,44,26,26,26,00,06,39,33*91d1fa3b
#BESTPOSA,FILE,0,30.0,FINESTEERING,2315,479986.900,02040000,cdba,17139;SOL_COMPUTED,INS_PSRSP,17.60171886219,78.12658415292,525.2016,-76.2000,WGS84,1.9391,1.8354,1.8312,"",0.000,0.000,44,26,26,26,00,06,39,33*3ff3499f
#BESTPOSA,FILE,0,30.0,FINESTEERING,2315,479987.000,02040000,cdba,17139;SOL_COMPUTED,INS_PSRSP,17.60172235407,78.12658418730,525.2021,-76.2000,WGS84,1.9391,1.8354,1.8312,"",0.000,0.000,44,26,26,26,00,06,39,33*ef272a02
#BESTPOSA,FILE,0,30.0,FINESTEERING,2315,479987.100,02040000,cdba,17139;SOL_COMPUTED,INS_PSRSP,17.60172585920,78.12658419930,525.2065,-76.2000,WGS84,2.0500,1.9599,1.8615,"",0.000,0.000,44,25,25,25,00,06,39,33*10451b8f
#BESTPOSA,FILE,0,32.0,FINESTEERING,2315,479987.200,02040000,cdba,17139;SOL_COMPUTED,INS_PSRSP,17.60172937034,78.12658419835,525.2118,-76.2000,WGS84,2.0500,1.9599,1.8615,"",0.000,0.000,44,25,25,25,00,06,39,33*9f38c3dc
#BESTPOSA,FILE,0,32.0,FINESTEERING,2315,479987.300,02040000,cdba,17139;SOL_COMPUTED,INS_PSRSP,17.60173290022,78.12658419321,525.2148,-76.2000,WGS84,2.0500,1.9599,1.8615,"",0.000,0.000,44,25,25,25,00,06,39,33*5fc55167
#BESTPOSA,FILE,0,32.0,FINESTEERING,2315,479987.400,02040000,cdba,17139;SOL_COMPUTED,INS_PSRSP,17.60173645428,78.12658417955,525.2153,-76.2000,WGS84,2.0500,1.9599,1.8615,"",0.000,0.000,44,25,25,25,00,06,39,33*0a3191ce
#BESTPOSA,FILE,0,32.0,FINESTEERING,2315,479987.500,02040000,cdba,17139;SOL_COMPUTED,INS_PSRSP,17.60174002388,78.12658416123,525.2170,-76.2000,WGS84,2.0500,1.9599,1.8615,"",0.000,0.000,44,25,25,25,00,06,39,33*7daac680
#BESTPOSA,FILE,0,32.0,FINESTEERING,2315,479987.600,02040000,cdba,17139;SOL_COMPUTED,INS_PSRSP,17.60174359095,78.12658412317,525.2196,-76.2000,WGS84,2.0500,1.9599,1.8615,"",0.000,0.000,44,25,25,25,00,06,39,33*2b61b8e3
#BESTPOSA,FILE,0,32.0,FINESTEERING,2315,479987.700,02040000,cdba,17139;SOL_COMPUTED,INS_PSRSP,17.60174714604,78.12658407351,525.2224,-76.2000,WGS84,2.0500,1.9599,1.8615,"",0.000,0.000,44,25,25,25,00,06,39,33*be16085e
#BESTPOSA,FILE,0,32.0,FINESTEERING,2315,479987.800,02040000,cdba,17139;SOL_COMPUTED,INS_PSRSP,17.60175068804,78.12658401740,525.2249,-76.2000,WGS84,2.0500,1.9599,1.8615,"",0.000,0.000,44,25,25,25,00,06,39,33*07c38539
#BESTPOSA,FILE,0,32.0,FINESTEERING,2315,479987.900,02040000,cdba,17139;SOL_COMPUTED,INS_PSRSP,17.60175421470,78.12658396474,525.2293,-76.2000,WGS84,2.0500,1.9599,1.8615,"",0.000,0.000,44,25,25,25,00,06,39,33*dd1f95c8
#BESTPOSA,FILE,0,32.0,FINESTEERING,2315,479988.000,02040000,cdba,17139;SOL_COMPUTED,INS_PSRSP,17.60175772577,78.12658390592,525.2351,-76.2000,WGS84,2.0500,1.9599,1.8615,"",0.000,0.000,44,25,25,25,00,06,39,33*6e55b260
#BESTPOSA,FILE,0,30.0,FINESTEERING,2315,479988.100,02040000,cdba,17139;SOL_COMPUTED,INS_PSRSP,17.60176122265,78.12658383543,525.2389,-76.2000,WGS84,2.1240,2.0661,1.8974,"",0.000,0.000,45,26,26,26,00,06,39,33*737bf897
#BESTPOSA,FILE,0,30.0,FINESTEERING,2315,479988.200,02040000,cdba,17139;SOL_COMPUTED,INS_PSRSP,17.60176469755,78.12658375351,525.2406,-76.2000,WGS84,2.1240,2.0661,1.8974,"",0.000,0.000,45,26,26,26,00,06,39,33*a69bf873
#BESTPOSA,FILE,0,30.0,FINESTEERING,2315,479988.300,02040000,cdba,17139;SOL_COMPUTED,INS_PSRSP,17.60176814263,78.12658366684,525.2420,-76.2000,WGS84,2.1240,2.0661,1.8974,"",0.000,0.000,45,26,26,26,00,06,39,33*b8b7f504
#BESTPOSA,FILE,0,30.0,FINESTEERING,2315,479988.400,02040000,cdba,17139;SOL_COMPUTED,INS_PSRSP,17.60177156690,78.12658358164,525.2431,-76.2000,WGS84,2.1240,2.0661,1.8974,"",0.000,0.000,45,26,26,26,00,06,39,33*23c6a2d5
#BESTPOSA,FILE,0,30.0,FINESTEERING,2315,479988.500,02040000,cdba,17139;SOL_COMPUTED,INS_PSRSP,17.60177497577,78.12658349065,525.2434,-76.2000,WGS84,2.1240,2.0661,1.8974,"",0.000,0.000,45,26,26,26,00,06,39,33*6c519daa
#BESTPOSA,FILE,0,30.0,FINESTEERING,2315,479988.600,02040000,cdba,17139;SOL_COMPUTED,INS_PSRSP,17.60177837451,78.12658340064,525.2425,-76.2000,WGS84,2.1240,2.0661,1.8974,"",0.000,0.000,45,26,26,26,00,06,39,33*370b6348
#BESTPOSA,FILE,0,30.0,FINESTEERING,2315,479988.700,02040000,cdba,17139;SOL_COMPUTED,INS_PSRSP,17.60178176250,78.12658331433,525.2427,-76.2000,WGS84,2.1240,2.0661,1.8974,"",0.000,0.000,45,26,26,26,00,06,39,33*bf17c4b0
#BESTPOSA,FILE,0,30.0,FINESTEERING,2315,479988.800,02040000,cdba,17139;SOL_COMPUTED,INS_PSRSP,17.60178515334,78.12658321742,525.2426,-76.2000,WGS84,2.1240,2.0661,1.8974,"",0.000,0.000,45,26,26,26,00,06,39,33*6741dc74
#BESTPOSA,FILE,0,30.0,FINESTEERING,2315,479988.900,02040000,cdba,17139;SOL_COMPUTED,INS_PSRSP,17.60178854530,78.12658312859,525.2434,-76.2000,WGS84,2.1240,2.0661,1.8974,"",0.000,0.000,45,26,26,26,00,06,39,33*f2a968d0
#BESTPOSA,FILE,0,30.0,FINESTEERING,2315,479989.000,02040000,cdba,17139;SOL_COMPUTED,INS_PSRSP,17.60179192752,78.12658303699,525.2448,-76.2000,WGS84,2.1240,2.0661,1.8974,"",0.000,0.000,45,26,26,26,00,06,39,33*162b53d1
#BESTPOSA,FILE,0,30.0,FINESTEERING,2315,479989.100,02040000,cdba,17139;SOL_COMPUTED,INS_PSRSP,17.60179529404,78.12658294272,525.2471,-76.2000,WGS84,2.2494,2.2072,1.9409,"",0.000,0.000,45,26,26,26,00,06,39,33*b236a3fd
#BESTPOSA,FILE,0,31.5,FINESTEERING,2315,479989.200,02040000,cdba,17139;SOL_COMPUTED,INS_PSRSP,17.60179864359,78.12658284016,525.2506,-76.2000,WGS84,2.2494,2.2072,1.9409,"",0.000,0.000,45,26,26,26,00,06,39,33*830e15b6
#BESTPOSA,FILE,0,31.5,FINESTEERING,2315,479989.300,02040000,cdba,17139;SOL_COMPUTED,INS_PSRSP,17.60180198184,78.12658273781,525.2532,-76.2000,WGS84,2.2494,2.2072,1.9409,"",0.000,0.000,45,26,26,26,00,06,39,33*fcba39f3
#BESTPOSA,FILE,0,31.5,FINESTEERING,2315,479989.400,02040000,cdba,17139;SOL_COMPUTED,INS_PSRSP,17.60180531814,78.12658263274,525.2535,-76.2000,WGS84,2.2494,2.2072,1.9409,"",0.000,0.000,45,26,26,26,00,06,39,33*b31dc894
#BESTPOSA,FILE,0,31.5,FINESTEERING,2315,479989.500,02040000,cdba,17139;SOL_COMPUTED,INS_PSRSP,17.60180868001,78.12658252647,525.2505,-76.2000,WGS84,2.2494,2.2072,1.9409,"",0.000,0.000,45,26,26,26,00,06,39,33*e04fa4f9
#BESTPOSA,FILE,0,31.5,FINESTEERING,2315,479989.600,02040000,cdba,17139;SOL_COMPUTED,INS_PSRSP,17.60181207448,78.12658242728,525.2480,-76.2000,WGS84,2.2494,2.2072,1.9409,"",0.000,0.000,45,26,26,26,00,06,39,33*4394db51
#BESTPOSA,FILE,0,31.5,FINESTEERING,2315,479989.700,02040000,cdba,17139;SOL_COMPUTED,INS_PSRSP,17.60181548700,78.12658232037,525.2489,-76.2000,WGS84,2.2494,2.2072,1.9409,"",0.000,0.000,45,26,26,26,00,06,39,33*150103ad
#BESTPOSA,FILE,0,31.5,FINESTEERING,2315,479989.800,02040000,cdba,17139;SOL_COMPUTED,INS_PSRSP,17.60181892287,78.12658221134,525.2518,-76.2000,WGS84,2.2494,2.2072,1.9409,"",0.000,0.000,45,26,26,26,00,06,39,33*e2c25b5d
#BESTPOSA,FILE,0,31.5,FINESTEERING,2315,479989.900,02040000,cdba,17139;SOL_COMPUTED,INS_PSRSP,17.60182240639,78.12658210724,525.2535,-76.2000,WGS84,2.2494,2.2072,1.9409,"",0.000,0.000,45,26,26,26,00,06,39,33*408fb876
#BESTPOSA,FILE,0,31.5,FINESTEERING,2315,479990.000,02040000,cdba,17139;SOL_COMPUTED,INS_PSRSP,17.60182593788,78.12658200293,525.2547,-76.2000,WGS84,2.2494,2.2072,1.9409,"",0.000,0.000,45,26,26,26,00,06,39,33*707b299f
#BESTPOSA,FILE,0,29.5,FINESTEERING,2315,479990.100,02040000,cdba,17139;SOL_COMPUTED,INS_PSRSP,17.60182948801,78.12658189046,525.2573,-76.2000,WGS84,2.3888,2.3407,1.9869,"",0.000,0.000,48,27,27,27,00,06,39,33*a317bdab
#BESTPOSA,FILE,0,29.5,FINESTEERING,2315,479990.200,02040000,cdba,17139;SOL_COMPUTED,INS_PSRSP,17.60183303857,78.12658176959,525.2609,-76.2000,WGS84,2.3888,2.3407,1.9869,"",0.000,0.000,48,27,27,27,00,06,39,33*295799d5
#BESTPOSA,FILE,0,29.5,FINESTEERING,2315,479990.300,02040000,cdba,17139;SOL_COMPUTED,INS_PSRSP,17.60183659847,78.12658164487,525.2633,-76.2000,WGS84,2.3888,2.3407,1.9869,"",0.000,0.000,48,27,27,27,00,06,39,33*ed023549
#BESTPOSA,FILE,0,29.5,FINESTEERING,2315,479990.400,02040000,cdba,17139;SOL_COMPUTED,INS_PSRSP,17.60184018592,78.12658151950,525.2639,-76.2000,WGS84,2.3888,2.3407,1.9869,"",0.000,0.000,48,27,27,27,00,06,39,33*22e29bf8
#BESTPOSA,FILE,0,29.5,FINESTEERING,2315,479990.500,02040000,cdba,17139;SOL_COMPUTED,INS_PSRSP,17.60184380011,78.12658139993,525.2654,-76.2000,WGS84,2.3888,2.3407,1.9869,"",0.000,0.000,48,27,27,27,00,06,39,33*ba922f40
#BESTPOSA,FILE,0,29.5,FINESTEERING,2315,479990.600,02040000,cdba,17139;SOL_COMPUTED,INS_PSRSP,17.60184743035,78.12658128426,525.2693,-76.2000,WGS84,2.3888,2.3407,1.9869,"",0.000,0.000,48,27,27,27,00,06,39,33*6c678f46
#BESTPOSA,FILE,0,29.5,FINESTEERING,2315,479990.700,02040000,cdba,17139;SOL_COMPUTED,INS_PSRSP,17.60185106925,78.12658116313,525.2738,-76.2000,WGS84,2.3888,2.3407,1.9869,"",0.000,0.000,48,27,27,27,00,06,39,33*cdb506da
#BESTPOSA,FILE,0,29.5,FINESTEERING,2315,479990.800,02040000,cdba,17139;SOL_COMPUTED,INS_PSRSP,17.60185472088,78.12658104088,525.2777,-76.2000,WGS84,2.3888,2.3407,1.9869,"",0.000,0.000,48,27,27,27,00,06,39,33*56e2fa14
#BESTPOSA,FILE,0,29.5,FINESTEERING,2315,479990.900,02040000,cdba,17139;SOL_COMPUTED,INS_PSRSP,17.60185839772,78.12658091391,525.2798,-76.2000,WGS84,2.3888,2.3407,1.9869,"",0.000,0.000,48,27,27,27,00,06,39,33*648cf7bd
#BESTPOSA,FILE,0,29.5,FINESTEERING,2315,479991.000,02040000,cdba,17139;SOL_COMPUTED,INS_PSRSP,17.60186209894,78.12658079259,525.2810,-76.2000,WGS84,2.3888,2.3407,1.9869,"",0.000,0.000,48,27,27,27,00,06,39,33*5614ff14
#BESTPOSA,FILE,0,29.0,FINESTEERING,2315,479991.100,02040000,cdba,17139;SOL_COMPUTED,INS_PSRSP,17.60186581889,78.12658067639,525.2824,-76.2000,WGS84,2.5340,2.4672,2.0252,"",0.000,0.000,48,27,27,27,00,06,39,33*c2e61ea2
#BESTPOSA,FILE,0,29.0,FINESTEERING,2315,479991.200,02040000,cdba,17139;SOL_COMPUTED,INS_PSRSP,17.60186955083,78.12658056999,525.2852,-76.2000,WGS84,2.5340,2.4672,2.0252,"",0.000,0.000,48,27,27,27,00,06,39,33*b574ae32
#BESTPOSA,FILE,0,29.0,FINESTEERING,2315,479991.300,02040000,cdba,17139;SOL_COMPUTED,INS_PSRSP,17.60187330027,78.12658047382,525.2877,-76.2000,WGS84,2.5340,2.4672,2.0252,"",0.000,0.000,48,27,27,27,00,06,39,33*e1a13e68
#BESTPOSA,FILE,0,29.0,FINESTEERING,2315,479991.400,02040000,cdba,17139;SOL_COMPUTED,INS_PSRSP,17.60187706885,78.12658037285,525.2900,-76.2000,WGS84,2.5340,2.4672,2.0252,"",0.000,0.000,48,27,27,27,00,06,39,33*4821cf56
#BESTPOSA,FILE,0,29.0,FINESTEERING,2315,479991.500,02040000,cdba,17139;SOL_COMPUTED,INS_PSRSP,17.60188085648,78.12658028163,525.2908,-76.2000,WGS84,2.5340,2.4672,2.0252,"",0.000,0.000,48,27,27,27,00,06,39,33*a7b995a5
#BESTPOSA,FILE,0,29.0,FINESTEERING,2315,479991.600,02040000,cdba,17139;SOL_COMPUTED,INS_PSRSP,17.60188465487,78.12658019095,525.2925,-76.2000,WGS84,2.5340,2.4672,2.0252,"",0.000,0.000,48,27,27,27,00,06,39,33*26fd6a81
#BESTPOSA,FILE,0,29.0,FINESTEERING,2315,479991.700,02040000,cdba,17139;SOL_COMPUTED,INS_PSRSP,17.60188846337,78.12658011123,525.2948,-76.2000,WGS84,2.5340,2.4672,2.0252,"",0.000,0.000,48,27,27,27,00,06,39,33*bed1c0be
#BESTPOSA,FILE,0,29.0,FINESTEERING,2315,479991.800,02040000,cdba,17139;SOL_COMPUTED,INS_PSRSP,17.60189228562,78.12658002871,525.2989,-76.2000,WGS84,2.5340,2.4672,2.0252,"",0.000,0.000,48,27,27,27,00,06,39,33*f4ce4baa
#BESTPOSA,FILE,0,29.0,FINESTEERING,2315,479991.900,02040000,cdba,17139;SOL_COMPUTED,INS_PSRSP,17.60189613031,78.12657996043,525.3028,-76.2000,WGS84,2.5340,2.4672,2.0252,"",0.000,0.000,48,27,27,27,00,06,39,33*fbac3293
#BESTPOSA,FILE,0,29.0,FINESTEERING,2315,479992.000,02040000,cdba,17139;SOL_COMPUTED,INS_PSRSP,17.60189999776,78.12657990142,525.3045,-76.2000,WGS84,2.5340,2.4672,2.0252,"",0.000,0.000,48,27,27,27,00,06,39,33*e4956b43
#BESTPOSA,FILE,0,29.0,FINESTEERING,2315,479992.100,02040000,cdba,17139;SOL_COMPUTED,INS_PSRSP,17.60190387749,78.12657984837,525.3061,-76.2000,WGS84,2.6909,2.5913,2.0703,"",0.000,0.000,48,27,27,27,00,06,39,33*5e6514cc
#BESTPOSA,FILE,0,29.0,FINESTEERING,2315,479992.200,02040000,cdba,17139;SOL_COMPUTED,INS_PSRSP,17.60190776458,78.12657978966,525.3080,-76.2000,WGS84,2.6909,2.5913,2.0703,"",0.000,0.000,48,27,27,27,00,06,39,33*1f315dfa
#BESTPOSA,FILE,0,29.0,FINESTEERING,2315,479992.300,02040000,cdba,17139;SOL_COMPUTED,INS_PSRSP,17.60191166487,78.12657974748,525.3087,-76.2000,WGS84,2.6909,2.5913,2.0703,"",0.000,0.000,48,27,27,27,00,06,39,33*22472153
#BESTPOSA,FILE,0,29.0,FINESTEERING,2315,479992.400,02040000,cdba,17139;SOL_COMPUTED,INS_PSRSP,17.60191558953,78.12657969307,525.3060,-76.2000,WGS84,2.6909,2.5913,2.0703,"",0.000,0.000,48,27,27,27,00,06,39,33*1fd6c757
#BESTPOSA,FILE,0,29.0,FINESTEERING,2315,479992.500,02040000,cdba,17139;SOL_COMPUTED,INS_PSRSP,17.60191953068,78.12657965340,525.3030,-76.2000,WGS84,2.6909,2.5913,2.0703,"",0.000,0.000,48,27,27,27,00,06,39,33*f3c10a54
#BESTPOSA,FILE,0,29.0,FINESTEERING,2315,479992.600,02040000,cdba,17139;SOL_COMPUTED,INS_PSRSP,17.60192348250,78.12657962371,525.3049,-76.2000,WGS84,2.6909,2.5913,2.0703,"",0.000,0.000,48,27,27,27,00,06,39,33*02766106
#BESTPOSA,FILE,0,29.0,FINESTEERING,2315,479992.700,02040000,cdba,17139;SOL_COMPUTED,INS_PSRSP,17.60192744561,78.12657961156,525.3092,-76.2000,WGS84,2.6909,2.5913,2.0703,"",0.000,0.000,48,27,27,27,00,06,39,33*4ec49278
#BESTPOSA,FILE,0,29.0,FINESTEERING,2315,479992.800,02040000,cdba,17139;SOL_COMPUTED,INS_PSRSP,17.60193141931,78.12657961730,525.3150,-76.2000,WGS84,2.6909,2.5913,2.0703,"",0.000,0.000,48,27,27,27,00,06,39,33*6c9ff4f7
#BESTPOSA,FILE,0,29.0,FINESTEERING,2315,479992.900,02040000,cdba,17139;SOL_COMPUTED,INS_PSRSP,17.60193539955,78.12657961272,525.3222,-76.2000,WGS84,2.6909,2.5913,2.0703,"",0.000,0.000,48,27,27,27,00,06,39,33*eae1edf7
#BESTPOSA,FILE,0,29.0,FINESTEERING,2315,479993.000,02040000,cdba,17139;SOL_COMPUTED,INS_PSRSP,17.60193938797,78.12657960374,525.3268,-76.2000,WGS84,2.6909,2.5913,2.0703,"",0.000,0.000,48,27,27,27,00,06,39,33*ad94338d
#BESTPOSA,FILE,0,29.0,FINESTEERING,2315,479993.100,02040000,cdba,17139;SOL_COMPUTED,INS_PSRSP,17.60194337053,78.12657958424,525.3297,-76.2000,WGS84,2.8502,2.7235,2.1171,"",0.000,0.000,48,27,27,27,00,06,39,33*44874c97
#BESTPOSA,FILE,0,31.0,FINESTEERING,2315,479993.200,02040000,cdba,17139;SOL_COMPUTED,INS_PSRSP,17.60194734287,78.12657956641,525.3307,-76.2000,WGS84,2.8502,2.7235,2.1171,"",0.000,0.000,48,27,27,27,00,06,39,33*8d4e4f4d
#BESTPOSA,FILE,0,31.0,FINESTEERING,2315,479993.300,02040000,cdba,17139;SOL_COMPUTED,INS_PSRSP,17.60195130035,78.12657955781,525.3306,-76.2000,WGS84,2.8502,2.7235,2.1171,"",0.000,0.000,48,27,27,27,00,06,39,33*fd1affb0
#BESTPOSA,FILE,0,31.0,FINESTEERING,2315,479993.400,02040000,cdba,17139;SOL_COMPUTED,INS_PSRSP,17.60195522260,78.12657954895,525.3321,-76.2000,WGS84,2.8502,2.7235,2.1171,"",0.000,0.000,48,27,27,27,00,06,39,33*c10ff9de
#BESTPOSA,FILE,0,31.0,FINESTEERING,2315,479993.500,02040000,cdba,17139;SOL_COMPUTED,INS_PSRSP,17.60195909776,78.12657953608,525.3347,-76.2000,WGS84,2.8502,2.7235,2.1171,"",0.000,0.000,48,27,27,27,00,06,39,33*5ddb83eb
#BESTPOSA,FILE,0,31.0,FINESTEERING,2315,479993.600,02040000,cdba,17139;SOL_COMPUTED,INS_PSRSP,17.60196293410,78.12657951152,525.3359,-76.2000,WGS84,2.8502,2.7235,2.1171,"",0.000,0.000,48,27,27,27,00,06,39,33*f4ffcb17
#BESTPOSA,FILE,0,31.0,FINESTEERING,2315,479993.700,02040000,cdba,17139;SOL_COMPUTED,INS_PSRSP,17.60196674192,78.12657947741,525.3352,-76.2000,WGS84,2.8502,2.7235,2.1171,"",0.000,0.000,48,27,27,27,00,06,39,33*9af1fc51
#BESTPOSA,FILE,0,31.0,FINESTEERING,2315,479993.800,02040000,cdba,17139;SOL_COMPUTED,INS_PSRSP,17.60197052073,78.12657944472,525.3339,-76.2000,WGS84,2.8502,2.7235,2.1171,"",0.000,0.000,48,27,27,27,00,06,39,33*93abd1ea
#BESTPOSA,FILE,0,31.0,FINESTEERING,2315,479993.900,02040000,cdba,17139;SOL_COMPUTED,INS_PSRSP,17.60197425875,78.12657940027,525.3348,-76.2000,WGS84,2.8502,2.7235,2.1171,"",0.000,0.000,48,27,27,27,00,06,39,33*b0f419c7
#BESTPOSA,FILE,0,31.0,FINESTEERING,2315,479994.000,02040000,cdba,17139;SOL_COMPUTED,INS_PSRSP,17.60197794276,78.12657935313,525.3378,-76.2000,WGS84,2.8502,2.7235,2.1171,"",0.000,0.000,48,27,27,27,00,06,39,33*40b0b8b1
#BESTPOSA,FILE,0,31.0,FINESTEERING,2315,479994.100,02040000,cdba,17139;SOL_COMPUTED,INS_PSRSP,17.60198157227,78.12657929818,525.3417,-76.2000,WGS84,2.9918,2.8254,2.1737,"",0.000,0.000,49,28,28,28,00,06,39,33*f46baa53
#BESTPOSA,FILE,0,31.0,FINESTEERING,2315,479994.200,02040000,cdba,17139;SOL_COMPUTED,INS_PSRSP,17.60198515227,78.12657923164,525.3444,-76.2000,WGS84,2.9918,2.8254,2.1737,"",0.000,0.000,49,28,28,28,00,06,39,33*63052dc7
#BESTPOSA,FILE,0,31.0,FINESTEERING,2315,479994.300,02040000,cdba,17139;SOL_COMPUTED,INS_PSRSP,17.60198868374,78.12657916568,525.3464,-76.2000,WGS84,2.9918,2.8254,2.1737,"",0.000,0.000,49,28,28,28,00,06,39,33*e49fd1c1
#BESTPOSA,FILE,0,31.0,FINESTEERING,2315,479994.400,02040000,cdba,17139;SOL_COMPUTED,INS_PSRSP,17.60199215846,78.12657910367,525.3504,-76.2000,WGS84,2.9918,2.8254,2.1737,"",0.000,0.000,49,28,28,28,00,06,39,33*21c4048c
#BESTPOSA,FILE,0,31.0,FINESTEERING,2315,479994.500,02040000,cdba,17139;SOL_COMPUTED,INS_PSRSP,17.60199557571,78.12657902625,525.3548,-76.2000,WGS84,2.9918,2.8254,2.1737,"",0.000,0.000,49,28,28,28,00,06,39,33*19998a02
#BESTPOSA,FILE,0,31.0,FINESTEERING,2315,479994.600,02040000,cdba,17139;SOL_COMPUTED,INS_PSRSP,17.60199894138,78.12657894167,525.3582,-76.2000,WGS84,2.9918,2.8254,2.1737,"",0.000,0.000,49,28,28,28,00,06,39,33*cd2f8e92
#BESTPOSA,FILE,0,31.0,FINESTEERING,2315,479994.700,02040000,cdba,17139;SOL_COMPUTED,INS_PSRSP,17.60200225851,78.12657885641,525.3596,-76.2000,WGS84,2.9918,2.8254,2.1737,"",0.000,0.000,49,28,28,28,00,06,39,33*c23f8acd
#BESTPOSA,FILE,0,31.0,FINESTEERING,2315,479994.800,02040000,cdba,17139;SOL_COMPUTED,INS_PSRSP,17.60200552221,78.12657875939,525.3601,-76.2000,WGS84,2.9918,2.8254,2.1737,"",0.000,0.000,49,28,28,28,00,06,39,33*79fb145c
#BESTPOSA,FILE,0,31.0,FINESTEERING,2315,479994.900,02040000,cdba,17139;SOL_COMPUTED,INS_PSRSP,17.60200872008,78.12657867844,525.3633,-76.2000,WGS84,2.9918,2.8254,2.1737,"",0.000,0.000,49,28,28,28,00,06,39,33*ff0a540e
#BESTPOSA,FILE,0,31.0,FINESTEERING,2315,479995.000,02040000,cdba,17139;SOL_COMPUTED,INS_PSRSP,17.60201187782,78.12657858942,525.3666,-76.2000,WGS84,2.9918,2.8254,2.1737,"",0.000,0.000,49,28,28,28,00,06,39,33*d759d0e8
#BESTPOSA,FILE,0,30.0,FINESTEERING,2315,479995.100,02040000,cdba,17139;SOL_COMPUTED,INS_PSRSP,17.60201501662,78.12657849127,525.3667,-76.2000,WGS84,3.1331,2.9139,2.2310,"",0.000,0.000,49,28,28,28,00,06,39,33*685efabd
#BESTPOSA,FILE,0,30.0,FINESTEERING,2315,479995.200,02040000,cdba,17139;SOL_COMPUTED,INS_PSRSP,17.60201816383,78.12657838722,525.3652,-76.2000,WGS84,3.1331,2.9139,2.2310,"",0.000,0.000,49,28,28,28,00,06,39,33*35781c52
#BESTPOSA,FILE,0,30.0,FINESTEERING,2315,479995.300,02040000,cdba,17139;SOL_COMPUTED,INS_PSRSP,17.60202134507,78.12657826881,525.3620,-76.2000,WGS84,3.1331,2.9139,2.2310,"",0.000,0.000,49,28,28,28,00,06,39,33*65518d45
#BESTPOSA,FILE,0,30.0,FINESTEERING,2315,479995.400,02040000,cdba,17139;SOL_COMPUTED,INS_PSRSP,17.60202453643,78.12657815371,525.3620,-76.2000,WGS84,3.1331,2.9139,2.2310,"",0.000,0.000,49,28,28,28,00,06,39,33*9330107d
#BESTPOSA,FILE,0,30.0,FINESTEERING,2315,479995.500,02040000,cdba,17139;SOL_COMPUTED,INS_PSRSP,17.60202771370,78.12657804276,525.3656,-76.2000,WGS84,3.1331,2.9139,2.2310,"",0.000,0.000,49,28,28,28,00,06,39,33*01a1fc63
#BESTPOSA,FILE,0,30.0,FINESTEERING,2315,479995.600,02040000,cdba,17139;SOL_COMPUTED,INS_PSRSP,17.60203087159,78.12657792857,525.3708,-76.2000,WGS84,3.1331,2.9139,2.2310,"",0.000,0.000,49,28,28,28,00,06,39,33*4094dc57
#BESTPOSA,FILE,0,30.0,FINESTEERING,2315,479995.700,02040000,cdba,17139;SOL_COMPUTED,INS_PSRSP,17.60203401734,78.12657780142,525.3732,-76.2000,WGS84,3.1331,2.9139,2.2310,"",0.000,0.000,49,28,28,28,00,06,39,33*8bd4b57f
#BESTPOSA,FILE,0,30.0,FINESTEERING,2315,479995.800,02040000,cdba,17139;SOL_COMPUTED,INS_PSRSP,17.60203715073,78.12657768082,525.3740,-76.2000,WGS84,3.1331,2.9139,2.2310,"",0.000,0.000,49,28,28,28,00,06,39,33*510dc292
#BESTPOSA,FILE,0,30.0,FINESTEERING,2315,479995.900,02040000,cdba,17139;SOL_COMPUTED,INS_PSRSP,17.60204027358,78.12657753977,525.3722,-76.2000,WGS84,3.1331,2.9139,2.2310,"",0.000,0.000,49,28,28,28,00,06,39,33*3bce73ad
#BESTPOSA,FILE,0,30.0,FINESTEERING,2315,479996.000,02040000,cdba,17139;SOL_COMPUTED,INS_PSRSP,17.60204338508,78.12657739932,525.3709,-76.2000,WGS84,3.1331,2.9139,2.2310,"",0.000,0.000,49,28,28,28,00,06,39,33*301a6dac
#BESTPOSA,FILE,0,30.0,FINESTEERING,2315,479996.100,02040000,cdba,17139;SOL_COMPUTED,INS_PSRSP,17.60204648608,78.12657725638,525.3699,-76.2000,WGS84,3.2758,2.9868,2.2922,"",0.000,0.000,49,28,28,28,00,06,39,33*66c5e070
#BESTPOSA,FILE,0,32.0,FINESTEERING,2315,479996.200,02040000,cdba,17139;SOL_COMPUTED,INS_PSRSP,17.60204958547,78.12657709775,525.3694,-76.2000,WGS84,3.2758,2.9868,2.2922,"",0.000,0.000,49,28,28,28,00,06,39,33*7001400d
#BESTPOSA,FILE,0,32.0,FINESTEERING,2315,479996.300,02040000,cdba,17139;SOL_COMPUTED,INS_PSRSP,17.60205268588,78.12657693618,525.3691,-76.2000,WGS84,3.2758,2.9868,2.2922,"",0.000,0.000,49,28,28,28,00,06,39,33*f40a79e1
#BESTPOSA,FILE,0,32.0,FINESTEERING,2315,479996.400,02040000,cdba,17139;SOL_COMPUTED,INS_PSRSP,17.60205577590,78.12657677883,525.3706,-76.2000,WGS84,3.2758,2.9868,2.2922,"",0.000,0.000,49,28,28,28,00,06,39,33*48cbed25
#BESTPOSA,FILE,0,32.0,FINESTEERING,2315,479996.500,02040000,cdba,17139;SOL_COMPUTED,INS_PSRSP,17.60205885772,78.12657660831,525.3708,-76.2000,WGS84,3.2758,2.9868,2.2922,"",0.000,0.000,49,28,28,28,00,06,39,33*86b8be04
#BESTPOSA,FILE,0,32.0,FINESTEERING,2315,479996.600,02040000,cdba,17139;SOL_COMPUTED,INS_PSRSP,17.60206193751,78.12657643596,525.3688,-76.2000,WGS84,3.2758,2.9868,2.2922,"",0.000,0.000,49,28,28,28,00,06,39,33*ac17a87c
#BESTPOSA,FILE,0,32.0,FINESTEERING,2315,479996.700,02040000,cdba,17139;SOL_COMPUTED,INS_PSRSP,17.60206502966,78.12657625854,525.3647,-76.2000,WGS84,3.2758,2.9868,2.2922,"",0.000,0.000,49,28,28,28,00,06,39,33*9c95b2bd
#BESTPOSA,FILE,0,32.0,FINESTEERING,2315,479996.800,02040000,cdba,17139;SOL_COMPUTED,INS_PSRSP,17.60206813648,78.12657607517,525.3612,-76.2000,WGS84,3.2758,2.9868,2.2922,"",0.000,0.000,49,28,28,28,00,06,39,33*8ef120a9
#BESTPOSA,FILE,0,32.0,FINESTEERING,2315,479996.900,02040000,cdba,17139;SOL_COMPUTED,INS_PSRSP,17.60207125166,78.12657589750,525.3592,-76.2000,WGS84,3.2758,2.9868,2.2922,"",0.000,0.000,49,28,28,28,00,06,39,33*6b3b98d8
#BESTPOSA,FILE,0,32.0,FINESTEERING,2315,479997.000,02040000,cdba,17139;SOL_COMPUTED,INS_PSRSP,17.60207436727,78.12657572300,525.3580,-76.2000,WGS84,3.2758,2.9868,2.2922,"",0.000,0.000,49,28,28,28,00,06,39,33*2e2d1e23
#BESTPOSA,FILE,0,31.5,FINESTEERING,2315,479997.100,02040000,cdba,17139;SOL_COMPUTED,INS_PSRSP,17.60207748893,78.12657555906,525.3579,-76.2000,WGS84,3.4112,3.0467,2.3551,"",0.000,0.000,50,29,29,29,00,06,39,33*a13aa4d4
#BESTPOSA,FILE,0,31.5,FINESTEERING,2315,479997.200,02040000,cdba,17139;SOL_COMPUTED,INS_PSRSP,17.60208062139,78.12657540768,525.3567,-76.2000,WGS84,3.4112,3.0467,2.3551,"",0.000,0.000,50,29,29,29,00,06,39,33*b066cc8f
#BESTPOSA,FILE,0,31.5,FINESTEERING,2315,479997.300,02040000,cdba,17139;SOL_COMPUTED,INS_PSRSP,17.60208376537,78.12657526006,525.3547,-76.2000,WGS84,3.4112,3.0467,2.3551,"",0.000,0.000,50,29,29,29,00,06,39,33*05ae6e5f
#BESTPOSA,FILE,0,31.5,FINESTEERING,2315,479997.400,02040000,cdba,17139;SOL_COMPUTED,INS_PSRSP,17.60208691622,78.12657511573,525.3536,-76.2000,WGS84,3.4112,3.0467,2.3551,"",0.000,0.000,50,29,29,29,00,06,39,33*07b9d582
#BESTPOSA,FILE,0,31.5,FINESTEERING,2315,479997.500,02040000,cdba,17139;SOL_COMPUTED,INS_PSRSP,17.60209007125,78.12657497785,525.3532,-76.2000,WGS84,3.4112,3.0467,2.3551,"",0.000,0.000,50,29,29,29,00,06,39,33*8fa93ba0
#BESTPOSA,FILE,0,31.5,FINESTEERING,2315,479997.600,02040000,cdba,17139;SOL_COMPUTED,INS_PSRSP,17.60209322889,78.12657484929,525.3527,-76.2000,WGS84,3.4112,3.0467,2.3551,"",0.000,0.000,50,29,29,29,00,06,39,33*a6b71760
#BESTPOSA,FILE,0,31.5,FINESTEERING,2315,479997.700,02040000,cdba,17139;SOL_COMPUTED,INS_PSRSP,17.60209639043,78.12657473370,525.3518,-76.2000,WGS84,3.4112,3.0467,2.3551,"",0.000,0.000,50,29,29,29,00,06,39,33*bd69e517
#BESTPOSA,FILE,0,31.5,FINESTEERING,2315,479997.800,02040000,cdba,17139;SOL_COMPUTED,INS_PSRSP,17.60209955520,78.12657462673,525.3504,-76.2000,WGS84,3.4112,3.0467,2.3551,"",0.000,0.000,50,29,29,29,00,06,39,33*1c1b9ce0
#BESTPOSA,FILE,0,31.5,FINESTEERING,2315,479997.900,02040000,cdba,17139;SOL_COMPUTED,INS_PSRSP,17.60210272249,78.12657452508,525.3487,-76.2000,WGS84,3.4112,3.0467,2.3551,"",0.000,0.000,50,29,29,29,00,06,39,33*d4508198
#BESTPOSA,FILE,0,31.5,FINESTEERING,2315,479998.000,02040000,cdba,17139;SOL_COMPUTED,INS_PSRSP,17.60210589073,78.12657443144,525.3476,-76.2000,WGS84,3.4112,3.0467,2.3551,"",0.000,0.000,50,29,29,29,00,06,39,33*52d393f9
#BESTPOSA,FILE,0,29.0,FINESTEERING,2315,479998.100,02040000,cdba,17139;SOL_COMPUTED,INS_PSRSP,17.60210906093,78.12657434304,525.3462,-76.2000,WGS84,3.5338,3.1008,2.4205,"",0.000,0.000,50,29,29,29,00,06,39,33*48f4d117
#BESTPOSA,FILE,0,29.0,FINESTEERING,2315,479998.200,02040000,cdba,17139;SOL_COMPUTED,INS_PSRSP,17.60211223655,78.12657426093,525.3437,-76.2000,WGS84,3.5338,3.1008,2.4205,"",0.000,0.000,50,29,29,29,00,06,39,33*f8df780c
#BESTPOSA,FILE,0,29.0,FINESTEERING,2315,479998.300,02040000,cdba,17139;SOL_COMPUTED,INS_PSRSP,17.60211541587,78.12657419207,525.3416,-76.2000,WGS84,3.5338,3.1008,2.4205,"",0.000,0.000,50,29,29,29,00,06,39,33*24d7bcd9
#BESTPOSA,FILE,0,29.0,FINESTEERING,2315,479998.400,02040000,cdba,17139;SOL_COMPUTED,INS_PSRSP,17.60211859788,78.12657411270,525.3400,-76.2000,WGS84,3.5338,3.1008,2.4205,"",0.000,0.000,50,29,29,29,00,06,39,33*054f56d6
#BESTPOSA,FILE,0,29.0,FINESTEERING,2315,479998.500,02040000,cdba,17139;SOL_COMPUTED,INS_PSRSP,17.60212178062,78.12657404121,525.3427,-76.2000,WGS84,3.5338,3.1008,2.4205,"",0.000,0.000,50,29,29,29,00,06,39,33*c8b8bf55
#BESTPOSA,FILE,0,29.0,FINESTEERING,2315,479998.600,02040000,cdba,17139;SOL_COMPUTED,INS_PSRSP,17.60212497382,78.12657398251,525.3446,-76.2000,WGS84,3.5338,3.1008,2.4205,"",0.000,0.000,50,29,29,29,00,06,39,33*72318852
#BESTPOSA,FILE,0,29.0,FINESTEERING,2315,479998.700,02040000,cdba,17139;SOL_COMPUTED,INS_PSRSP,17.60212817156,78.12657392278,525.3453,-76.2000,WGS84,3.5338,3.1008,2.4205,"",0.000,0.000,50,29,29,29,00,06,39,33*6b967f8b
#BESTPOSA,FILE,0,29.0,FINESTEERING,2315,479998.800,02040000,cdba,17139;SOL_COMPUTED,INS_PSRSP,17.60213136543,78.12657388014,525.3461,-76.2000,WGS84,3.5338,3.1008,2.4205,"",0.000,0.000,50,29,29,29,00,06,39,33*386c7ce2
#BESTPOSA,FILE,0,29.0,FINESTEERING,2315,479998.900,02040000,cdba,17139;SOL_COMPUTED,INS_PSRSP,17.60213455650,78.12657384194,525.3465,-76.2000,WGS84,3.5338,3.1008,2.4205,"",0.000,0.000,50,29,29,29,00,06,39,33*4b46181b
#BESTPOSA,FILE,0,29.0,FINESTEERING,2315,479999.000,02040000,cdba,17139;SOL_COMPUTED,INS_PSRSP,17.60213774741,78.12657380218,525.3470,-76.2000,WGS84,3.5338,3.1008,2.4205,"",0.000,0.000,50,29,29,29,00,06,39,33*1a182aee
#BESTPOSA,FILE,0,29.0,FINESTEERING,2315,479999.100,02040000,cdba,17139;SOL_COMPUTED,INS_PSRSP,17.60214094301,78.12657376742,525.3482,-76.2000,WGS84,3.6480,3.1546,2.4874,"",0.000,0.000,50,29,29,29,00,06,39,33*6c6f5f21
#BESTPOSA,FILE,0,29.5,FINESTEERING,2315,479999.200,02040000,cdba,17139;SOL_COMPUTED,INS_PSRSP,17.60214414214,78.12657373069,525.3490,-76.2000,WGS84,3.6480,3.1546,2.4874,"",0.000,0.000,50,29,29,29,00,06,39,33*c8575b75
#BESTPOSA,FILE,0,29.5,FINESTEERING,2315,479999.300,02040000,cdba,17139;SOL_COMPUTED,INS_PSRSP,17.60214733904,78.12657370058,525.3500,-76.2000,WGS84,3.6480,3.1546,2.4874,"",0.000,0.000,50,29,29,29,00,06,39,33*8ba62989
#BESTPOSA,FILE,0,29.5,FINESTEERING,2315,479999.400,02040000,cdba,17139;SOL_COMPUTED,INS_PSRSP,17.60215053182,78.12657367849,525.3513,-76.2000,WGS84,3.6480,3.1546,2.4874,"",0.000,0.000,50,29,29,29,00,06,39,33*f3a4883e
#BESTPOSA,FILE,0,29.5,FINESTEERING,2315,479999.500,02040000,cdba,17139;SOL_COMPUTED,INS_PSRSP,17.60215372475,78.12657366495,525.3537,-76.2000,WGS84,3.6480,3.1546,2.4874,"",0.000,0.000,50,29,29,29,00,06,39,33*9634bf10
#BESTPOSA,FILE,0,29.5,FINESTEERING,2315,479999.600,02040000,cdba,17139;SOL_COMPUTED,INS_PSRSP,17.60215692133,78.12657365090,525.3561,-76.2000,WGS84,3.6480,3.1546,2.4874,"",0.000,0.000,50,29,29,29,00,06,39,33*6064fa25
#BESTPOSA,FILE,0,29.5,FINESTEERING,2315,479999.700,02040000,cdba,17139;SOL_COMPUTED,INS_PSRSP,17.60216012325,78.12657364341,525.3585,-76.2000,WGS84,3.6480,3.1546,2.4874,"",0.000,0.000,50,29,29,29,00,06,39,33*e585a3c9
#BESTPOSA,FILE,0,29.5,FINESTEERING,2315,479999.800,02040000,cdba,17139;SOL_COMPUTED,INS_PSRSP,17.60216332350,78.12657364475,525.3607,-76.2000,WGS84,3.6480,3.1546,2.4874,"",0.000,0.000,50,29,29,29,00,06,39,33*9e1d891e
#BESTPOSA,FILE,0,29.5,FINESTEERING,2315,479999.900,02040000,cdba,17139;SOL_COMPUTED,INS_PSRSP,17.60216652149,78.12657364619,525.3616,-76.2000,WGS84,3.6480,3.1546,2.4874,"",0.000,0.000,50,29,29,29,00,06,39,33*47db7f6f
#BESTPOSA,FILE,0,29.5,FINESTEERING,2315,480000.000,02040000,cdba,17139;SOL_COMPUTED,INS_PSRSP,17.60216971833,78.12657365094,525.3611,-76.2000,WGS84,3.6480,3.1546,2.4874,"",0.000,0.000,50,29,29,29,00,06,39,33*ea0364b7
#BESTPOSA,FILE,0,29.5,FINESTEERING,2315,480000.100,02040000,cdba,17139;SOL_COMPUTED,INS_PSRSP,17.60217291970,78.12657365766,525.3607,-76.2000,WGS84,3.7377,3.2055,2.5525,"",0.000,0.000,49,28,28,28,00,06,39,33*dcfb22b4
#BESTPOSA,FILE,0,30.5,FINESTEERING,2315,480000.200,02040000,cdba,17139;SOL_COMPUTED,INS_PSRSP,17.60217612598,78.12657365674,525.3603,-76.2000,WGS84,3.7377,3.2055,2.5525,"",0.000,0.000,49,28,28,28,00,06,39,33*c483ed7c
#BESTPOSA,FILE,0,30.5,FINESTEERING,2315,480000.300,02040000,cdba,17139;SOL_COMPUTED,INS_PSRSP,17.60217932802,78.12657365767,525.3616,-76.2000,WGS84,3.7377,3.2055,2.5525,"",0.000,0.000,49,28,28,28,00,06,39,33*5c92ec75
#BESTPOSA,FILE,0,30.5,FINESTEERING,2315,480000.400,02040000,cdba,17139;SOL_COMPUTED,INS_PSRSP,17.60218252452,78.12657365981,525.3629,-76.2000,WGS84,3.7377,3.2055,2.5525,"",0.000,0.000,49,28,28,28,00,06,39,33*ed319227
#BESTPOSA,FILE,0,30.5,FINESTEERING,2315,480000.500,02040000,cdba,17139;SOL_COMPUTED,INS_PSRSP,17.60218571428,78.12657365978,525.3642,-76.2000,WGS84,3.7377,3.2055,2.5525,"",0.000,0.000,49,28,28,28,00,06,39,33*b6c0f9d6
#BESTPOSA,FILE,0,30.5,FINESTEERING,2315,480000.600,02040000,cdba,17139;SOL_COMPUTED,INS_PSRSP,17.60218890120,78.12657365947,525.3644,-76.2000,WGS84,3.7377,3.2055,2.5525,"",0.000,0.000,49,28,28,28,00,06,39,33*ccec1422
#BESTPOSA,FILE,0,30.5,FINESTEERING,2315,480000.700,02040000,cdba,17139;SOL_COMPUTED,INS_PSRSP,17.60219208308,78.12657364742,525.3666,-76.2000,WGS84,3.7377,3.2055,2.5525,"",0.000,0.000,49,28,28,28,00,06,39,33*e7980711
#BESTPOSA,FILE,0,30.5,FINESTEERING,2315,480000.800,02040000,cdba,17139;SOL_COMPUTED,INS_PSRSP,17.60219526232,78.12657363401,525.3691,-76.2000,WGS84,3.7377,3.2055,2.5525,"",0.000,0.000,49,28,28,28,00,06,39,33*85abe598
#BESTPOSA,FILE,0,30.5,FINESTEERING,2315,480000.900,02040000,cdba,17139;SOL_COMPUTED,INS_PSRSP,17.60219843850,78.12657361435,525.3704,-76.2000,WGS84,3.7377,3.2055,2.5525,"",0.000,0.000,49,28,28,28,00,06,39,33*e7e64427
#BESTPOSA,FILE,0,30.5,FINESTEERING,2315,480001.000,02040000,cdba,17139;SOL_COMPUTED,INS_PSRSP,17.60220161057,78.12657358708,525.3706,-76.2000,WGS84,3.7377,3.2055,2.5525,"",0.000,0.000,49,28,28,28,00,06,39,33*6b2de745
#BESTPOSA,FILE,0,29.0,FINESTEERING,2315,480001.100,02040000,cdba,17139;SOL_COMPUTED,INS_PSRSP,17.60220478076,78.12657355808,525.3698,-76.2000,WGS84,3.8011,3.2224,2.6184,"",0.000,0.000,50,29,29,29,00,06,39,33*32d1fad4
